X,Y,OBJECTID,stop_id,stop_name,stop_desc,stop_lat,stop_lon,POINT_X,POINT_Y,trip_id,stop_sequence,Time_Hour,offset,Notes,Trash,Sign,MPH,time_point,Arrive,Depart,Jurisdiction,Pullout,trip_direction,location_type,STOPTYPE,ROTATION
-108.544589118,39.106257532,1,S136,Horizon Drive north of G Road,Bench/Shelter,39.10625753,-108.54458912,712313.37459683,4331438.72683258,RT1,22,:25-:35,SE, ,Yes,Yes,40,No,,,City,No,Out,0,Intermediate,135
-108.544836086,39.1064175750001,2,S137,Horizon Drive east of G Road,Bench,39.10641757,-108.54483609,712291.53673388,4331455.91305962,RT1,35,:45-:55 ,NW, ,No,Yes,40,No,,,City,No,In,0,Intermediate,-45
-108.54326452,39.107855478,3,S138,Horizon Drive at Denny's,Bench,39.10785548,-108.54326452,712423.12385091,4331619.18867182,RT1,23,:25-:35,SE, ,No,Yes,40,No,,,City,No,Out,0,Intermediate,128
-108.543598544,39.1078557590001,4,S139,Horizon Drive at Applebee's,Bench/Shelter,39.10785576,-108.54359854,712394.23773408,4331618.43823297,RT1,34,:45,NW, ,Yes,Yes,40,Yes,1899/12/30 05:45:01+00,1899/12/30 05:45:01+00,City,No,In,0,Intermediate,-53
-108.541205928,39.110402713,5,S142,Horizon Drive at Taco Bell,Bench/Shelter,39.11040271,-108.54120593,712593.48556064,4331906.73695752,RT1,24,:35,SE, ,Yes,Yes,40,Yes,1899/12/30 05:35:01+00,1899/12/30 05:35:01+00,City,No,Out,0,Intermediate,135
-108.541532917,39.1104821280001,6,S144,Horizon Drive at Freddy's,No,39.11048213,-108.54153292,712564.97095997,4331914.78574913,RT1,33,:35-:45 ,NW, ,Yes,Yes,40,No,,,City,No,In,0,Intermediate,-45
-108.537610831,39.112971176,7,S145,Horizon Drive at Wendy's,Bench/Shelter,39.11297118,-108.53761083,712896.63222182,4332200.24897271,RT1,25,:35-:45 ,SE, ,Yes,Yes,35,No,,,City,No,Out,0,Intermediate,150
-108.538201725,39.112987178,8,S146,Horizon Drive at Clarion Inn,Bench/Shelter,39.11298718,-108.53820172,712845.48930661,4332200.63919108,RT1,32,:35-:45 ,NW, ,Yes,Yes,40,No,,,City,No,In,0,Intermediate,-30
-108.535128119,39.114633881,9,S149,Horizon Drive and Crossroads Boulevard (Grand Vista Hotel),Bench,39.11463388,-108.53512812,713106.30147664,4332390.62694467,RT1,31,:35-:45 ,NW, ,No,Yes,40,No,,,City,No,In,0,Intermediate,-30
-108.534752965,39.11457785,10,S150,Horizon Drive north of Horizon Court (Horizon Inn) ,Bench,39.11457785,-108.53475296,713138.90933854,4332385.28889226,RT1,26,:35-:45 ,SE, ,No,Yes,35,No,,,City,No,Out,0,Intermediate,155
-108.530486377,39.116948945,11,S153,Horizon Drive at Motel 6,Bench,39.11694894,-108.53048638,713500.67372471,4332658.49649906,RT1,27,:35-:45 ,SE, ,No,Yes,35,No,,,City,No,Out,0,Intermediate,135
-108.530659826,39.1171902400001,12,S154,Horizon Drive across from Motel 6,Bench,39.11719024,-108.53065983,713484.94761784,4332684.87089848,RT1,30,:35-:45 ,NW, ,No,Yes,40,No,,,City,No,In,0,Intermediate,-45
-108.530021956,39.1225429410001,13,S155,Grand Junction Regional Airport,Bench/Shelter,39.12254294,-108.53002196,713523.93132556,4333280.49257472,RT1,28,:35-:45 ,N,airport owns bench and shelter,Yes,Yes,40,No,,,Private,Yes,In,0,Intermediate,25
-108.5524795,39.0852050450001,14,S148,12th Street south of Walnut Avenue,Bench,39.08520504,-108.5524795,711694.01203611,4329083.60421615,RT1,41,:45-:55 ,W, ,Yes,Yes,30,No,,,City,No,In,0,Intermediate,-90
-108.552255123,39.087128942,15,S152,12th Street north of Walnut Avenue,No,39.08712894,-108.55225512,711707.66631101,4329297.66774319,RT1,16,:25-:35,E, ,No,Yes,30,No,,,City,No,Out,0,Intermediate,90
-108.552521387,39.0751395130001,16,S165,12th Street south of Teller Avenue (Lincoln Park),Bench/Shelter,39.07513951,-108.55252139,711720.49224066,4327966.29709605,RT1,43,:45-:55 ,W, ,Yes,Yes,30,No,,,City,No,In,0,Intermediate,-90
-108.552273243,39.0965043090001,17,S279,12th Street at Fairmont Medical Plaza,No,39.09650431,-108.55227324,711678.0494766,4330338.23293533,RT1,19,:25-:35,E, ,No,Yes,35,No,,,City,No,Out,0,Intermediate,90
-108.551375697,39.102072863,18,S280,Horizon Drive east of 12th Street (Safeway),Bench,39.10207286,-108.5513757,711739.00960316,4330958.40152023,RT1,21,:25-:35,SE, ,No,Yes,40,No,,,City,Yes,Out,0,Intermediate,155
-108.55716485,39.089903372,19,S281,Wellington Avenue east of 8th Street,No,39.08990337,-108.55716485,711274.68287948,4329594.17668738,RT7,33,:55 - :05,S, ,No,Yes,25,No,,,City,No,In,0,Intermediate,180
-108.559559949,39.0899364800001,20,S263,750 Wellington Avenue (Surgical Center and Dialysis) ,No,39.08993648,-108.55955995,711067.41211856,4329592.2813784,RT7,32,:55,S, ,No,Yes,25,Yes,1899/12/30 05:55:01+00,1899/12/30 05:55:01+00,City,No,In,0,Intermediate,180
-108.552444797,39.099905565,21,S333,12th Street at Northwood Apartments,No,39.09990557,-108.5524448,711653.03511107,4330715.35150632,RT1,37,:45-:55 ,W, ,No,Yes,35,No,,,City,No,In,0,Intermediate,-90
-108.552518158,39.096589743,22,S334,12th Street and Lakeside Drive,No,39.09658974,-108.55251816,711656.61109276,4330347.14455388,RT1,38,:45-:55 ,W, ,No,Yes,35,No,,,City,No,In,0,Intermediate,-90
-108.552253319,39.0979025830001,23,S335,12th Street at Atrium ,No,39.09790258,-108.55225332,711675.58877205,4330493.47921755,RT1,20,:25-:35,E, ,No,Yes,35,No,,,City,No,Out,0,Intermediate,90
-108.556981517,39.090054206,24,S361,Wellington Avenue west of Little Bookcliff Drive,No,39.09005421,-108.55698152,711290.09050501,4329611.34493145,RT7,8,:15 - :25,N, ,No,Yes,25,No,,,City,No,Out,0,Intermediate,0
-108.552253883,39.0940382590001,25,S371,12th Street north of Hermosa Avenue,No,39.09403826,-108.55225388,711687.10248576,4330064.56165637,RT1,18,:25-:35,E, ,No,Yes,35,No,,,City,No,Out,0,Intermediate,90
-108.552471892,39.094001055,26,S372,12th Street at Mesa Manor Care Center,Bench,39.09400106,-108.55247189,711668.35752665,4330059.92406399,RT1,39,:45-:55 ,W, ,No,Yes,35,No,,,City,No,In,0,Intermediate,-90
-108.552480301,39.0812870180001,27,S89,12th Street north of Elm Avenue (Colorado Mesa University),,39.08128702,-108.5524803,711705.66157462,4328648.72629124,RT1,42,:45-:55 ,W,University removed bench?,No,Yes,30,No,,,City,No,In,0,Intermediate,-90
-108.550769059,39.102661562,28,S465,Horizon Drive at Safeway,Bench/Shelter,39.10266156,-108.55076906,711789.71099516,4331025.1587147,RT1,36,:45-:55 ,NW, ,Yes,Yes,30,No,,,City,Yes,In,0,Intermediate,-30
-108.563595124,39.0632116200001,29,S87,Downtown Transfer Facility (6th Street and South Avenue) ,Bench/Shelter,39.06321162,-108.56359512,710797.93582667,4326616.62780403,RT1,1,:15,0,Transfer Station,Yes,Yes,30,Yes,1899/12/30 05:15:01+00,1899/12/30 05:15:01+00,City,Yes,Out,1,Transfer,0
-108.536700698,39.1241466430001,30,S151,Social Security Office<br/><b>Only Served<br/> Monday Tuesday Thursday Friday<br/>8:00 am - 5:00 pm<br/>Wednesday<br/>8:00 am - 1:00 pm</b>,Bench,39.12414664,-108.5367007,712941.6642577,4333442.79937092,RT1,29,:35-:45 ,W, ,No,Yes,40,No,,,City,No,In,0,Intermediate,-90
-108.563595124,39.0632116200001,31,S87,Downtown Transfer Facility (6th Street and South Avenue),Bench/Shelter,39.06321162,-108.56359512,710797.93582667,4326616.62780403,RT1,54,:05,0,Transfer Station,Yes,Yes,30,Yes,1899/12/30 06:05:01+00,1899/12/30 06:05:01+00,City,Yes,In,1,Transfer,0
-108.470571449,39.0918896950001,32,S3,Patterson Road east of Orchard Run Drive,Bench,39.0918897,-108.47057145,718758.77666807,4330019.71035229,RT2,5,:45 - :55,N, rocks and no cutout for ada accessibility , ,Yes,45,No,,,County,No,Out,0,Intermediate,0
-108.473978991,39.091911065,33,S54,Patterson Road east of Peace Drive,No,39.09191107,-108.47397899,718463.96836475,4330013.8775571,RT2,6,:45 - :55,N, , ,Yes,45,No,,,County,No,Out,0,Intermediate,0
-108.478981131,39.0919144760001,34,S5,Patterson Road west of 31 Road,Bench,39.09191448,-108.47898113,718031.28787366,4330002.23201944,RT2,7,:45 - :55,N,dirt preventing safe ADA accessibility , ,Yes,45,No,,,County,No,Out,0,Intermediate,0
-108.487578604,39.091898164,35,S6,Patterson Road west of Mesa Valley Drive,Bench,39.09189816,-108.4875786,717287.68351481,4329979.81064037,RT2,9,:45 - :55,N, dirt preventing safe ADA accessibility , ,Yes,45,No,,,City,No,Out,0,Intermediate,0
-108.490494003,39.0919008130001,36,S60,Patterson Road west of Round Table Drive,No,39.09190081,-108.490494,717035.50270288,4329973.13149846,RT2,10,:45 - :55,N, , ,Yes,45,No,,,City,No,Out,0,Intermediate,0
-108.497408463,39.0919133030001,37,S91,Patterson Road west of 30 Road,Bench,39.0919133,-108.49740846,716437.38627207,4329958.01207364,RT2,11,:45 - :55,N, grass preventing safe ADA accessibility , ,Yes,45,No,,,City,No,Out,0,Intermediate,0
-108.501242487,39.091908774,38,S9,Patterson Road east of Broken Spoke Road,Bench,39.09190877,-108.50124249,716105.76988899,4329948.3767206,RT2,12,:45 - :55,N, rocks preventing safe ADA accessibility , ,Yes,45,No,,,City,No,Out,0,Intermediate,0
-108.49984606,39.0916846220001,39,S10,Patterson Road east of Placer Street,Bench,39.09168462,-108.49984606,716227.24111836,4329926.82176405,RT2,47,:25 - :35,S, , ,Yes,45,No,,,City,No,In,0,Intermediate,180
-108.495950014,39.091687058,40,S12,Patterson Road east of 30 Road,Bench/Shelter,39.09168706,-108.49595001,716564.22979481,4329936.37786524,RT2,48,:25 - :35,S, ,Yes,Yes,45,No,,,City,No,In,0,Intermediate,180
-108.491518271,39.0917031160001,41,S13,Patterson Road west of McMullin Drive,No,39.09170312,-108.49151827,716947.51303993,4329948.74020755,RT2,49,:25 - :35,S, , ,Yes,45,No,,,City,No,In,0,Intermediate,180
-108.487201574,39.091682674,42,S14,Patterson Road west of Shoshone Street,Bench,39.09168267,-108.48720157,717320.95728666,4329956.79471264,RT2,50,:25 - :35,S, , ,Yes,45,No,,,City,No,In,0,Intermediate,180
-108.478723306,39.0916601210001,43,S15,Patterson Road east of 31 Road ,Bench,39.09166012,-108.47872331,718054.37281806,4329974.61902161,RT2,52,:25 - :35,S, , ,Yes,45,No,,,County,No,In,0,Intermediate,180
-108.47425832,39.0916379860001,44,S16,Patterson Road at Long Family Memorial Park,Bench/Shelter,39.09163799,-108.47425832,718440.65029433,4329982.89502096,RT2,53,:25 - :35,S, , ,Yes,45,No,,,City,Yes,In,0,Intermediate,180
-108.469981765,39.09166951,45,S17,Patterson Road west of 31 ½ Road,Bench/Shelter,39.09166951,-108.46998176,718810.46351835,4329996.69178945,RT2,54,:25 - :35,S, ,Yes,Yes,45,No,,,City,No,In,0,Intermediate,180
-108.46202458,39.0916715390001,46,S18,Patterson Road east of Conestoga Circle,Bench/Shelter,39.09167154,-108.46202458,719498.73300259,4330016.12399431,RT2,56,:25 - :35,S,Looks like there used to be a bench here,Yes,Yes,45,No,,,County,No,In,0,Intermediate,180
-108.459574766,39.0894040360001,47,S19,32 Road south of Patterson Road (Clifton Library),Bench/Shelter,39.08940404,-108.45957477,719717.67686638,4329770.36718171,RT2,57,:25 - :35,W, ,Yes,Yes,30,No,,,County,No,In,0,Intermediate,-90
-108.505495012,39.091698497,48,S206,Patterson Road east of 29 ½ Road,Bench/Shelter,39.0916985,-108.50549501,715738.58207469,4329914.92401138,RT2,46,:25 - :35,S, ,Yes,Yes,45,No,,,City,No,In,0,Intermediate,180
-108.511482543,39.09191479,49,S208,Patterson Road west of Cris Mar Drive,Bench,39.09191479,-108.51148254,715220.02200924,4329924.72141753,RT2,15,:45 - :55,N, dirt preventing safe ADA accessibility , ,Yes,45,No,,,County,No,Out,0,Intermediate,0
-108.515615098,39.0919410880001,50,S209,Patterson Road west of 29 Road (Safeway),Bench/Shelter,39.09194109,-108.5156151,714862.49082086,4329917.85266644,RT2,16,:45 - :55,N, ,Yes,Yes,45,No,,,City,No,Out,0,Intermediate,0
-108.514411828,39.0916955980001,51,S210,Patterson Road east of 29 Road (Safeway),Bench/Shelter,39.0916956,-108.51441183,714967.31514286,4329893.45285608,RT2,45,:25 - :35,S, ,Yes,Yes,45,No,,,City,No,In,0,Intermediate,180
-108.520628842,39.091901787,52,S2,Patterson Road east of 28 ¾ Road,No,39.09190179,-108.52062884,714428.93926602,4329901.63760385,RT2,17,:45 - :55,N, , ,Yes,45,No,,,City,No,Out,0,Intermediate,0
-108.539209527,39.091891506,53,S213,Patterson Road west of Beechwood Street,Bench,39.09189151,-108.53920953,712821.81064381,4329856.77957417,RT2,20,:45 - :55,N, grass preventing safe ADA accessibility , ,Yes,45,No,,,City,No,Out,0,Intermediate,0
-108.533376339,39.0919252090001,54,S230,Patterson Road east of 28 Road,Bench,39.09192521,-108.53337634,713326.25748626,4329874.20934077,RT2,19,:45 - :55,N, , ,Yes,45,No,,,City,No,Out,0,Intermediate,0
-108.530719849,39.0919293430001,55,S231,Patterson Road west of 28 1/4 Road (Village Park Apartments),Bench,39.09192934,-108.53071985,713556.02130081,4329880.91304364,RT2,18,:45 - :55,N, , ,Yes,45,No,,,City,No,Out,0,Intermediate,0
-108.529999548,39.091701378,56,S232,Patterson Road west of 28 ¼ Road (Mantey Heights),Bench/Shelter,39.09170138,-108.52999955,713619.0128685,4329857.30473189,RT2,42,:25 - :35,S, ,Yes,Yes,45,No,,,City,No,In,0,Intermediate,180
-108.526808264,39.0917026450001,57,S233,Patterson Road east of Grand Cascade Way,No,39.09170265,-108.52680826,713895.0439657,4329864.95847728,RT2,43,:25 - :35,S, , ,Yes,45,No,,,City,No,In,0,Intermediate,180
-108.518477167,39.091692118,58,S234,Patterson Road east of West Indian Creek Drive,No,39.09169212,-108.51847717,714615.6874038,4329883.44931895,RT2,44,:25 - :35,S, , ,Yes,45,No,,,City,No,In,0,Intermediate,180
-108.547855946,39.093327308,59,S268,15th Street south of Hermosa Avenue (Larchwood),Bench,39.09332731,-108.54785595,712069.62585768,4329995.913654,RT2,22,:55 - :05,W, , ,Yes,25,No,,,City,No,Out,0,Intermediate,-90
-108.465620348,39.091673552,60,S347,Patterson Road west of Ford Street,Bench,39.09167355,-108.46562035,719187.70212344,4330007.66056562,RT2,55,:25 - :35,S, , ,Yes,45,No,,,County,No,In,0,Intermediate,180
-108.588431292,39.091801086,61,S377,Patterson Road east of 25 Road,Bench,39.09180109,-108.58843129,708564.60083752,4329732.52595989,RT2,32,:15 - :25,S, no cut out for ADA accessibility , ,Yes,40,No,,,City,No,In,0,Intermediate,180
-108.57934861,39.0917481340001,62,S388,Patterson Road east of 25 ½ Road,Bench,39.09174813,-108.57934861,709350.36997598,4329747.55081194,RT2,34,:15 - :25,S, , ,Yes,40,No,,,City,No,In,0,Intermediate,180
-108.571685596,39.091717712,63,S379,Patterson Road west of 1st Street,Bench,39.09171771,-108.5716856,710013.27904991,4329761.87040929,RT2,35,:15 - :25,S, ,Yes,Yes,40,No,,,City,No,In,0,Intermediate,180
-108.564538525,39.0917120870001,64,S380,Patterson Road at St. Mary's Hospital (west of entrance) ,Bench,39.09171209,-108.56453853,710631.48855402,4329777.80142347,RT2,36,:15 - :25,S, ,Yes,Yes,35,No,,,City,No,In,0,Intermediate,180
-108.55480818,39.0917458480001,65,S381,Patterson Road west of 12th Street,No,39.09174585,-108.55480818,711473.02440641,4329804.16607754,RT2,38,:15 - :25,S, , ,Yes,35,No,,,City,No,In,0,Intermediate,180
-108.543842175,39.093965328,66,S382,Hermosa Avenue west of 27 ½ Road (The Commons),No,39.09396533,-108.54384218,712414.87858546,4330076.11281133,RT2,21,:55,N, , ,Yes,25,Yes,1899/12/30 05:55:01+00,1899/12/30 05:55:01+00,City,No,Out,0,Intermediate,0
-108.562175644,39.091970958,67,S383,Patterson Road west of 7th Street (St. Mary's Hospital),Bench,39.09197096,-108.56217564,710835.09707172,4329812.01845513,RT2,25,:55 - :05,N, , ,Yes,35,No,,,City,Yes,Out,0,Intermediate,0
-108.571519423,39.0919969190001,68,S384,Patterson Road west of 1st Street,Bench,39.09199692,-108.57151942,710026.82358861,4329793.24493582,RT2,26,:55 - :05,N, ,Yes,Yes,40,No,,,City,No,Out,0,Intermediate,0
-108.579354851,39.0919984880001,69,S385,Patterson Road east of 25 ½ Road,No,39.09199849,-108.57935485,709349.08949347,4329775.32406322,RT2,27,:55 - :05,N, , ,Yes,40,No,,,City,No,Out,0,Intermediate,0
-108.586220659,39.092002171,70,S386,Patterson Road east of Foresight Circle,No,39.09200217,-108.58622066,708755.21758987,4329759.92513885,RT2,28,:55 - :05,N, , ,Yes,40,No,,,City,No,Out,0,Intermediate,0
-108.593273466,39.0920265990001,71,S387,Patterson Road at Patterson Village Square,No,39.0920266,-108.59327347,708145.11083338,4329746.4451094,RT2,29,:55 - :05,N, , ,Yes,40,No,,,City,No,Out,0,Intermediate,0
-108.505147002,39.091907495,72,S207,Patterson Road east of 29 ½ Road,Bench,39.09190749,-108.505147,715768.0465507,4329938.94862291,RT2,13,:45 - :55,N, dirt preventing safe ADA accessibility , ,Yes,45,No,,,City,No,Out,0,Intermediate,0
-108.541862511,39.091692433,73,S450,Patterson Road east of 27 ½ Road,Bench/Shelter,39.09169243,-108.54186251,712592.93596588,4329828.4685676,RT2,41,:25,S, ,Yes,Yes,45,Yes,1899/12/30 06:25:01+00,1899/12/30 06:25:01+00,City,No,In,0,Intermediate,180
-108.507240455,39.0919174640001,74,S466,Patterson Road west of 29 ½ Road (Maverick),No,39.09191746,-108.50724046,715586.93964207,4329935.08223055,RT2,14,:45 - :55,N, , ,Yes,45,No,,,City,No,Out,0,Intermediate,0
-108.459892487,39.086014978,75,S82,Clifton Transfer Station (32 Road and I-70 Business Loop) ,Bench/Shelter,39.08601498,-108.45989249,719700.71578586,4329393.42877605,RT2,1,:45,0,Transfer Station,Yes,Yes,25,Yes,1899/12/30 05:45:01+00,1899/12/30 05:45:01+00,County/CDOT,Yes,Out,1,Transfer,0
-108.597854873,39.0929541260001,76,S478,West Transfer Facility,Bench/Shelter,39.09295413,-108.59785487,707746.11778253,4329838.90179178,RT2,30,:05 - :15,0,Transfer Station,Yes,Yes,30,Yes,1899/12/30 06:05:01+00,1899/12/30 06:15:01+00,City,No,In,1,Transfer,0
-108.483687933,39.0919207310001,77,S487,Patterson Road west of Lodgepole Street,No,39.09192073,-108.48368793,717624.1449288,4329991.63385167,RT2,8,:45 - :55,N, , ,Yes,45,No,,,County,No,Out,0,Intermediate,0
-108.482675978,39.0916779830001,78,S486,Patterson Road at Cross Orchards Historic Farm,No,39.09167798,-108.48267598,717712.42279306,4329967.11614317,RT2,51,:25 - :35,S, , ,Yes,45,No,,,County,No,In,0,Intermediate,180
-108.459407361,39.090480369,79,S59,32 Road south of Patterson Road (Clifton Library) ,No,39.09048037,-108.45940736,719728.81502516,4329890.24025838,RT2,2,:45 - :55,E, , ,Yes,30,No,,,County,No,Out,0,Intermediate,90
-108.461771201,39.0919257410001,80,S11,Patterson Road west of 32 Road,No,39.09192574,-108.4617712,719519.86099004,4330044.95187376,RT2,3,:45 - :55,N, , ,Yes,45,No,,,County,No,Out,0,Intermediate,0
-108.464770044,39.0919045410001,81,S25,Patterson Road west of Entrada Street,No,39.09190454,-108.46477004,719260.53536045,4330035.35227986,RT2,4,:45 - :55,N, , ,Yes,45,No,,,County,No,Out,0,Intermediate,0
-108.459892487,39.086014978,82,S82,Clifton Transfer Station (32 Road and I-70 Business Loop),Bench/Shelter,39.08601498,-108.45989249,719700.71578586,4329393.42877605,RT2,58,:35,0,Transfer Station,Yes,Yes,25,Yes,1899/12/30 06:35:01+00,1899/12/30 06:35:01+00,County/CDOT,Yes,In,1,Transfer,0
-108.461886068,39.0859184400001,83,S20,E ½ Road west of 32 Road (Coronado Plaza),No,39.08591844,-108.46188607,719528.5617219,4329377.89192249,RT3,26,:45 - :55,N, , ,Yes,25,No,,,County, ,In,0,Intermediate,-18
-108.481410091,39.0846189380001,84,S21,E ½ Road west of 31 Road,Bench,39.08461894,-108.48141009,717843.64849599,4329186.63394397,RT3,28,:45 - :55,N, dirt preventing safe ADA accessibility , ,Yes,35,No,,,County, ,In,0,Intermediate,0
-108.484247612,39.0846041520001,85,S22,E ½ Road east of Sun Valley Drive,No,39.08460415,-108.48424761,717598.23198919,4329178.18951772,RT3,29,:45 - :55,N, , ,Yes,35,No,,,County, ,In,0,Intermediate,0
-108.488787416,39.0846231670001,86,S23,E ½ Road west of Grand Valley Drive,No,39.08462317,-108.48878742,717205.4543275,4329169.431383,RT3,30,:45 - :55,N, , ,Yes,35,No,,,County, ,In,0,Intermediate,0
-108.492457688,39.084623852,87,S24,E ½ Road and Peachwood Drive,Bench,39.08462385,-108.49245769,716887.9528304,4329160.73483572,RT3,31,:45 - :55,N, dirt preventing safe ADA accessibility , ,Yes,35,No,,,County, ,In,0,Intermediate,0
-108.494115611,39.084495616,88,S26,Orchard Avenue east of 30 Road,Bench,39.08449562,-108.49411561,716744.92587292,4329142.54278964,RT3,20,:25 - :35,S, dirt preventing safe ADA accessibility , ,Yes,35,No,,,County, ,Out,0,Intermediate,180
-108.487553856,39.084485552,89,S27,E ½ Road East of Grand Valley Drive,No,39.08448555,-108.48755386,717312.58692847,4329157.10813564,RT3,21,:25 - :35,S, , ,Yes,35,No,,,County, ,Out,0,Intermediate,180
-108.484089231,39.0844821790001,90,S28,E ½ Road east of East Valley Drive,Bench,39.08448218,-108.48408923,717612.30786411,4329165.03074881,RT3,22,:25 - :35,S, dirt preventing safe ADA accessibility , ,Yes,35,No,,,County, ,Out,0,Intermediate,180
-108.480706869,39.0844864600001,91,S29,E ½ Road east of Hoover Court,Bench,39.08448646,-108.48070687,717904.88920395,4329173.61687986,RT3,23,:25 - :35,S, dirt preventing safe ADA accessibility , ,Yes,35,No,,,County, ,Out,0,Intermediate,180
-108.474355324,39.0846471020001,92,S30,E ½ Road west of Warrior Way (Long Family Memorial Park and Walmart),Bench/Shelter,39.0846471,-108.47435532,718453.84039248,4329206.70793226,RT3,27,:45 - :55,N, , ,Yes,35,No,,,County, ,In,0,Intermediate,0
-108.498516341,39.084697535,93,S81,Orchard Avenue west of 30 Road,No,39.08469753,-108.49851634,716363.61997008,4329154.46002561,RT3,32,:45 - :55,N, , ,Yes,35,No,,,County, ,In,0,Intermediate,0
-108.498933728,39.0845306890001,94,S78,Orchard Avenue west of Hall Avenue,No,39.08453069,-108.49893373,716328.02376483,4329134.9466408,RT3,19,:25 - :35,S, , ,Yes,35,No,,,County, ,Out,0,Intermediate,180
-108.504170108,39.084506639,95,S344,Orchard Avenue east of 29 ½ Road,No,39.08450664,-108.50417011,715875.12056275,4329119.81597875,RT3,18,:25 - :35,S, , ,Yes,35,No,,,County, ,Out,0,Intermediate,180
-108.504169631,39.084614829,96,S80,Orchard Avenue east of 29 ½ Road,No,39.08461483,-108.50416963,715874.8318701,4329131.82553504,RT3,33,:45 - :55,N, , ,Yes,35,No,,,County, ,In,0,Intermediate,0
-108.510828138,39.08465528,97,S83,Orchard Avenue west of 29 ¼ Road (Bookcliff Middle School),No,39.08465528,-108.51082814,715298.71155068,4329120.50760835,RT3,34,:45 - :55,N, , ,Yes,35,No,,,County, ,In,0,Intermediate,0
-108.514253586,39.084690505,98,S85,Orchard Avenue east of 29 Road,Bench,39.0846905,-108.51425359,715002.28491346,4329116.30153641,RT3,35,:45 - :55,N,Mesa County owns the bench: basic concrete without a pad or back rest, ,Yes,35,No,,,City, ,In,0,Intermediate,0
-108.513200966,39.0844713380001,99,S86,Orchard Avenue east of 29 Road,Bench,39.08447134,-108.51320097,715094.00816681,4329094.46803506,RT3,16,:25 - :35,S,Mesa County owns the bench: basic concrete without a pad or back rest, ,Yes,35,No,,,City, ,Out,0,Intermediate,180
-108.531402279,39.0847605480001,100,S129,Orchard Avenue east of Court Road,No,39.08476055,-108.53140228,713518.62298498,4329083.61440182,RT3,39,:55 - :05,N, , ,Yes,40,No,,,City, ,In,0,Intermediate,0
-108.52847442,39.0847495360001,101,S130,Orchard Avenue east of 28 ¼ Road,Bench,39.08474954,-108.52847442,713771.9306556,4329089.28040606,RT3,38,:55,N, , ,Yes,40,Yes,1899/12/30 05:55:01+00,1899/12/30 05:55:01+00,City, ,In,0,Intermediate,0
-108.528341848,39.084595822,102,S131,Orchard Avenue east of 28 ¼ Road (Columbine Park),Bench,39.08459582,-108.52834185,713783.86309477,4329072.53116288,RT3,13,:25 - :35,S, , ,Yes,40,No,,,City, ,Out,0,Intermediate,180
-108.52484978,39.0847506530001,103,S140,Orchard Avenue west of 28 ½ Road,No,39.08475065,-108.52484978,714085.47694758,4329097.94330154,RT3,37,:45 - :55,N, , ,Yes,40,No,,,City, ,In,0,Intermediate,0
-108.524157548,39.0846083480001,104,S141,Orchard Avenue east of 28 ½ Road,Bench,39.08460835,-108.52415755,714145.78907382,4329083.78044888,RT3,14,:25 - :35,S, , ,Yes,40,No,,,City, ,Out,0,Intermediate,180
-108.520249689,39.0846727430001,105,S134,Orchard Avenue west of 28 ¾ Road,No,39.08467274,-108.52024969,714483.64437496,4329100.15066672,RT3,36,:45 - :55,N, , ,Yes,40,No,,,County, ,In,0,Intermediate,0
-108.520243745,39.084566169,106,S337,Orchard Avenue west of 28 ¾ Road,No,39.08456617,-108.52024375,714484.48150833,4329088.33559005,RT3,15,:25 - :35,S, , ,Yes,40,No,,,County, ,Out,0,Intermediate,180
-108.564332948,39.071119266,107,S179,5th Street north of Grand Avenue (Central Library) ,Bench/Shelter,39.07111927,-108.56433295,710710.56227569,4327492.61088381,RT7,3,:15 - :25,E, ,Yes,Yes,30,No,,,City, ,Out,0,Intermediate,90
-108.564371184,39.075874211,108,S180,5th Street north of Teller Avenue,No,39.07587421,-108.56437118,710693.10419103,4328020.2892416,RT7,4,:15 - :25,E, , ,Yes,30,No,,,City, ,Out,0,Intermediate,90
-108.566241269,39.072963003,109,S182,4th Street south of Gunnison Avenue,Bench,39.072963,-108.56624127,710539.96978304,4327692.82844654,RT7,37,:55 - :05,W, , ,Yes,30,No,,,City, ,In,0,Intermediate,-90
-108.558446658,39.084675652,110,S191,Orchard Avenue west of 9th Street,No,39.08467565,-108.55844666,711179.40796332,4329010.951579,RT3,44,:55 - :05,N, , ,Yes,40,No,,,City,No,In,0,Intermediate,0
-108.566246548,39.066968026,111,S229,4th Street south of Main Street (Wells Fargo Bank),Bench,39.06696803,-108.56624655,710557.33794392,4327027.4144626,RT7,39,:55 - :05,W, , ,Yes,30,No,,,City, ,In,0,Intermediate,-90
-108.566258301,39.0708896940001,112,S246,4th Street north of Grand Avenue (Chamber of Commerce),Bench,39.07088969,-108.5662583,710544.66106081,4327462.66564735,RT7,38,:55 - :05,W, , ,Yes,30,No,,,City, ,In,0,Intermediate,-90
-108.564354913,39.067750953,113,S248,5th Street north of Main Street,Bench,39.06775095,-108.56435491,710718.68453497,4327118.70006537,RT7,2,:15 - :25,E, , ,Yes,30,No,,,City, ,Out,0,Intermediate,90
-108.538436179,39.0846738110001,114,S252,Orchard Avenue west of 23rd Street,No,39.08467381,-108.53843618,712910.41694454,4329057.47209529,RT3,41,:55 - :05,N, , ,Yes,40,No,,,City, ,In,0,Intermediate,0
-108.538034182,39.0845242230001,115,S253,Orchard Avenue east of 23rd Street,No,39.08452422,-108.53803418,712945.64176457,4329041.81124211,RT3,11,:25,S, , ,Yes,40,Yes,1899/12/30 05:25:01+00,1899/12/30 05:25:01+00,City, ,Out,0,Intermediate,180
-108.474299217,39.08442554,116,S396,E ½ Road west of Warrior Way (Walmart),No,39.08442554,-108.47429922,718459.37788531,4329182.25069061,RT3,24,:25 - :35,S, , ,Yes,35,No,,,City, ,Out,0,Intermediate,180
-108.551210171,39.0846955530001,117,S395,Orchard Avenue east of 12th Street,No,39.08469555,-108.55121017,711805.3390253,4329030.01371661,RT3,43,:55 - :05,N, , ,Yes,40,No,,,City, ,In,0,Intermediate,0
-108.563595124,39.0632116200001,118,S87,Downtown Transfer Facility (6th Street and South Avenue),Bench/Shelter,39.06321162,-108.56359512,710797.93582667,4326616.62780403,RT3,49,:05,0,Transfer Station,Yes,Yes,30,Yes,1899/12/30 06:05:01+00,1899/12/30 06:05:01+00,City,Yes,In,1,Transfer,0
-108.459892487,39.086014978,119,S82,Clifton Transfer Station (32 Road and I-70 Business Loop),Bench/Shelter,39.08601498,-108.45989249,719700.71578586,4329393.42877605,RT3,25,:35 - :45,0,Transfer Station,Yes,Yes,25,Yes,1899/12/30 05:35:01+00,1899/12/30 05:45:01+00,County/CDOT,Yes,In,1,Transfer,0
-108.544845736,39.084551187,120,S490,Orchard Avenue east of 17th Street,No,39.08455119,-108.54484574,712356.32651046,4329028.85353339,RT3,10,:15 - :25,S, , ,Yes,40,No,,,City, ,Out,0,Intermediate,180
-108.563595124,39.0632116200001,121,S87,Downtown Transfer Facility (6th Street and South Avenue) ,Bench/Shelter,39.06321162,-108.56359512,710797.93582667,4326616.62780403,RT3,1,:15,0,Transfer Station,Yes,Yes,30,Yes,1899/12/30 05:15:01+00,1899/12/30 05:15:01+00,City,Yes,Out,1,Transfer,0
-108.349194754,39.110214286,122,S319,3rd Street east of Main Street,No,39.11021429,-108.34919475,729198.21557203,4332353.17369858,RT4,18,:05 - :15,S, , ,Yes,25,No,,,Palisade, ,Out,0,Intermediate,180
-108.357308021,39.112242451,123,S320,1st Street east of Majestic Court (by the brick wall),No,39.11224245,-108.35730802,728490.05570734,4332557.83553152,RT4,21,:05 - :15,N, , ,Yes,25,No,,,Palisade, ,In,0,Intermediate,0
-108.36932634,39.1056396220001,124,S322,Highway 6 at Palisade High School (Inside Parking Lot),No,39.10563962,-108.36932634,727472.0292571,4331794.74741955,RT4,10,:55 - :05 Outbound :15 Inbound,S,Bus stops In-Bound and Out-Bound,Yes,Yes,35,No,,,Private,Yes,Out,0,Intermediate,180
-108.358526888,39.1021653450001,125,S323,Fairhaven Road west of Logan Street (Riverbend Park),Bench/Shelter,39.10216534,-108.35852689,728417.20607624,4331436.2341291,RT4,12,:55 - :05,S, ,Yes,Yes,25,No,,,Palisade, ,Out,0,Intermediate,210
-108.355830443,39.1017813600001,126,S324,Iowa Avenue north of Pendleton Street,No,39.10178136,-108.35583044,728651.65251001,4331400.40206713,RT4,13,:05,E, , ,Yes,20,Yes,1899/12/30 05:05:01+00,1899/12/30 05:05:01+00,Palisade, ,Out,0,Intermediate,90
-108.350546877,39.1121701060001,127,S325,1st Street east of Main Street,No,39.11217011,-108.35054688,729074.95176083,4332566.85111351,RT4,20,:05 - :15,N, , ,Yes,25,No,,,Palisade, ,In,0,Intermediate,0
-108.348441917,39.1115572470001,128,S326,Bower Avenue north of 2nd Street,No,39.11155725,-108.34844192,729258.96326851,4332504.14092987,RT4,19,:05 - :15,E, , ,Yes,25,No,,,Palisade, ,Out,0,Intermediate,90
-108.355740045,39.103549909,129,S327,Upper Iowa Avenue,No,39.10354991,-108.35574005,728653.75253117,4331596.93410587,RT4,14,:05 - :15,E, , ,Yes,20,No,,,Palisade, ,Out,0,Intermediate,90
-108.411768976,39.0917715910001,130,S328,F Road east of 34 ½ Road (Peachtree/Blossom Care Center),No,39.09177159,-108.41176898,723845.41585475,4330149.93195383,RT4,28,:15 - :25,N, , ,Yes,40,No,,,County, ,In,0,Intermediate,0
-108.403902649,39.0942072990001,131,S329,35 Road south of Highway 6,No,39.0942073,-108.40390265,724518.10820102,4330439.71108959,RT4,26,:15 - :25,W, , ,Yes,40,No,,,County, ,In,0,Intermediate,-90
-108.360324812,39.110198482,132,S330,Elberta Street north of Crawford Lane,No,39.11019848,-108.36032481,728235.78094991,4332323.36846626,RT4,22,:05 - :15,W, , ,Yes,25,No,,,Palisade, ,In,0,Intermediate,-90
-108.360380012,39.106792216,133,S331,Elberta Street north of Highway 6 (Dollar General),Bench/Private,39.10679222,-108.36038001,728242.00268596,4331945.14287287,RT4,23,:05 - :15,W, dirt preventing safe ADA accessibility , ,Yes,40,No,,,Palisade, ,In,0,Intermediate,-90
-108.360550993,39.105732162,134,S332,Elberta Avenue south of Frontage Road,No,39.10573216,-108.36055099,728230.63761004,4331827.04962825,RT4,11,:55 - :05,SW, , ,Yes,35,No,,,Palisade, ,Out,0,Intermediate,-90
-108.352052914,39.107111914,135,S338,Kluge Avenue at 7th Street,No,39.10711191,-108.35205291,728961.09845603,4332001.60315237,RT4,17,:05 - :15,E, , ,Yes,25,No,,,Palisade, ,Out,0,Intermediate,90
-108.422362489,39.093154789,136,S339,34 Road south of Highway 6,No,39.09315479,-108.42236249,722924.74027766,4330277.39617521,RT4,29,:25,E, , ,Yes,40,Yes,1899/12/30 05:25:01+00,1899/12/30 05:25:01+00,County, ,In,0,Intermediate,90
-108.422503993,39.0933403590001,137,S391,34 Road south of Highway 6,No,39.09334036,-108.42250399,722911.91604203,4330297.64623579,RT4,5,:45 - :55,W, , ,Yes,30,No,,,County, ,Out,0,Intermediate,-90
-108.354041472,39.1068469040001,138,S394,7th Street west of Peach Avenue (Fire Station),Bench/Shelter,39.1068469,-108.35404147,728789.98531468,4331967.17285788,RT4,16,:05 - :15,S, , ,Yes,35,No,,,Palisade, ,Out,0,Intermediate,180
-108.447595684,39.0918668050001,139,S451,Highway 6 east of Lois Street (No Sign - Stop and Save),Bench/Private,39.09186681,-108.44759568,720746.18803525,4330072.78018655,RT4,31,:25 - :35,N, no route sign, ,No,35,No,,,CDOT, ,In,0,Intermediate,0
-108.441296813,39.0901487470001,140,S453,Front Street west of 33 Road,No,39.09014875,-108.44129681,721296.3977932,4329897.41694449,RT4,4,:45 - :55,S, , ,Yes,30,No,,,County, ,Out,0,Intermediate,166
-108.441245523,39.091884393,141,S454,Highway 6 west of 33 Road (No Sign),No,39.09188439,-108.44124552,721295.40578564,4330090.19116915,RT4,30,:25 - :35,N, , ,No,40,No,,,CDOT, ,In,0,Intermediate,0
-108.459892487,39.086014978,142,S82,Clifton Transfer Station (32 Road and I-70 Business Loop),Bench/Shelter,39.08601498,-108.45989249,719700.71578586,4329393.42877605,RT4,1,:45,0,Transfer Station,Yes,Yes,25,Yes,1899/12/30 04:45:01+00,1899/12/30 04:45:01+00,County/CDOT,Yes,Out,1,Transfer,0
-108.407903691,39.096999284,143,S475,Highway 6 at Mount Garfield Middle School (Inside Parking Lot),No,39.09699928,-108.40790369,724163.19021387,4330739.72403752,RT4,25,:15 - :25 Inbound  :55 Outbound,0,Bus stops In-Bound and Out-Bound', ,Yes,40,No,,,Private,Yes,In,0,Intermediate,180
-108.413067479,39.0926712310001,144,S492,34 1/2 Road north of F Road (Peachtree and Blossom View) ,No,39.09267123,-108.41306748,723730.25297121,4330246.58782466,RT4,6,:45 - :55,E, , ,Yes,25,No,,,County, ,Out,0,Intermediate,90
-108.38577819,39.1027797620001,145,S495,Highway 6 west of 36 Road (Church),No,39.10277976,-108.38577819,726058.3897746,4331436.20763333,RT4,9,:55 - :05,S, , ,Yes,50,No,,,CDOT, ,Out,0,Intermediate,166
-108.396067628,39.1003390130001,146,S507,Highway 6 west of 35 ½ Road,No,39.10033901,-108.39606763,725176.28002274,4331139.71669941,RT4,8,:55 - :05,S, , ,Yes,50,No,,,CDOT, ,Out,0,Intermediate,166
-108.356234597,39.105703229,147,S511,Iowa Avenue south of Frontage Road,Bench,39.10570323,-108.3562346,728604.02036983,4331834.70141612,RT4,15,:05 - :15,E, , ,Yes,35,No,,,Palisade, ,Out,0,Intermediate,90
-108.459892487,39.086014978,148,S82,Clifton Transfer Station (32 Road And I-70 Business Loop),Bench/Shelter,39.08601498,-108.45989249,719700.71578586,4329393.42877605,RT4,32,:35,0,Transfer Station,Yes,Yes,35,Yes,1899/12/30 05:35:01+00,1899/12/30 05:35:01+00,County/CDOT,Yes,In,1,Transfer,0
-108.508763284,39.077209856,149,S90,North Avenue west of 29 ½ Road (Career Center),Bench/Shelter,39.07720986,-108.50876328,715499.99911577,4328299.00513485,RT5,15,:25 - :35,S,"just shelter, no bench", ,Yes,40,No,,,City, ,Out,0,Intermediate,180
-108.505688337,39.0789364600001,150,S93,29 1/2 Road at Community Services Campus,Bench/Shelter,39.07893646,-108.50568834,715760.76419434,4328497.94900989,RT5,16,:35,E, ,Yes,Yes,40,Yes,1899/12/30 05:35:01+00,1899/12/30 05:35:01+00,City,Yes,In,0,Intermediate,90
-108.536540454,39.077247286,151,S117,North Avenue east of 23rd Street (Teller Arms),Bench,39.07724729,-108.53654045,713096.76322368,4328237.61966485,RT5,9,:25 - :35,S, , ,Yes,35,No,,,City, ,Out,0,Intermediate,180
-108.531275358,39.077256022,152,S119,North Avenue east of 28 Road,Bench/Shelter,39.07725602,-108.53127536,713552.24202712,4328250.95573243,RT5,10,:25 - :35,S, there is no route sign for this stop, ,Yes,35,No,,,CIty, ,Out,0,Intermediate,180
-108.528509652,39.0772430430001,153,S122,North Avenue east of 28 ¼ Road (Solaris Square),Bench/Shelter,39.07724304,-108.52850965,713791.55406097,4328256.02160462,RT5,11,:25 - :35,S, ,Yes,Yes,35,No,,,City,Yes,Out,0,Intermediate,180
-108.523028827,39.077222669,154,S123,North Avenue east of 28 ½ Road (Homeward Bound),Bench/Shelter,39.07722267,-108.52302883,714265.78514925,4328266.67596817,RT5,12,:25 - :35,S, ,Yes,Yes,35,No,,,City,Yes,Out,0,Intermediate,180
-108.519294325,39.077184215,155,S124,North Avenue east of 28 ¾ Road (Walmart),Bench/Shelter,39.07718422,-108.51929432,714588.98969138,4328271.2246311,RT5,13,:25 - :35,S, ,Yes,Yes,35,No,,,City, ,Out,0,Intermediate,180
-108.55644323,39.070396439,156,S169,Grand Avenue west of 10th Street (Strive),Bench,39.07039644,-108.55644323,711395.34866382,4327430.71282756,RT9,34,:55 - :05,N, , ,Yes,30,No,,,City, ,In,0,Intermediate,0
-108.556450946,39.070247481,157,S170,Grand Avenue west of 10th Street (Strive),No,39.07024748,-108.55645095,711395.12580771,4327414.16148881,RT9,5,:15 - :25,S, , ,Yes,30,No,,,City, ,Out,0,Intermediate,180
-108.560373144,39.070238864,158,S171,Grand Avenue east of 7th Street,Bench,39.07023886,-108.56037314,711055.79362202,4327404.08499379,RT9,4,:15 - :25,S, ,Yes,Yes,30,No,,,City, ,Out,0,Intermediate,180
-108.559599646,39.0703975330001,159,S172,Grand Avenue west of 8th Street,Bench,39.07039753,-108.55959965,711122.24542293,4327423.49353524,RT9,35,:55 - :05,N, gravel and driveway preventing safe ADA accessibility , ,Yes,30,No,,,City, ,In,0,Intermediate,0
-108.570742891,39.0685569120001,160,S173,1st Street north of Rood Avenue,Bench/Shelter,39.06855691,-108.57074289,710163.57095893,4327193.35816956,RT5,3,:15 - :25,E, damage to electrical box under wic advertisement , ,Yes,25,No,,,City, ,Out,0,Intermediate,90
-108.550541308,39.0702353410001,161,S192,Grand Avenue east of 13th Street,No,39.07023534,-108.55054131,711906.47838444,4327426.58319208,RT9,6,:15 - :25,S, , ,Yes,30,No,,,City, ,Out,0,Intermediate,180
-108.551040505,39.0703824710001,162,S193,Grand Avenue west of 13th Street,No,39.07038247,-108.5510405,711862.84645118,4327441.74926736,RT9,33,:55 - :05,N, , ,Yes,30,No,,,City, ,In,0,Intermediate,0
-108.547394821,39.07013054,163,S194,Grand Avenue east of 15th Street,No,39.07013054,-108.54739482,712179.03435221,4327422.29573966,RT9,7,:15 - :25,S, , ,Yes,30,No,,,City, ,Out,0,Intermediate,180
-108.547888441,39.0703817400001,164,S195,Grand Avenue west of 15th Street,No,39.07038174,-108.54788844,712135.57250721,4327449.0243933,RT9,32,:55 - :05,N, , ,Yes,30,No,,,City, ,In,0,Intermediate,0
-108.538938447,39.0700676330001,165,S198,Grand Avenue east of 22nd Street (R-5 High School),No,39.07006763,-108.53893845,712910.89194234,4327435.09962821,RT9,9,:15 - :25,S, , ,Yes,30,No,,,City, ,Out,0,Intermediate,180
-108.539979157,39.0702037200001,166,S199,Grand Avenue west of 22nd Street (R-5 High School),Bench,39.07020372,-108.53997916,712820.43775997,4327447.76571045,RT9,31,:55 - :05,N, ,Yes,Yes,30,No,,,City, ,In,0,Intermediate,0
-108.537465772,39.0713691670001,167,S200,24th Street south of Ouray Avenue,No,39.07136917,-108.53746577,713034.39623022,4327583.01453437,RT9,30,:55 - :05,W, , ,Yes,25,No,,,City, ,In,0,Intermediate,-90
-108.537289464,39.07180836,168,S201,24th Street north of Ouray Avenue,No,39.07180836,-108.53728946,713048.32920339,4327632.17569244,RT9,10,:15 - :25,E, , ,Yes,25,No,,,City, ,Out,0,Intermediate,90
-108.53728531,39.074843931,169,S202,24th Street south of Teller Avenue,No,39.07484393,-108.53728531,713039.55468938,4327969.11479582,RT9,11,:15 - :25,E, , ,Yes,25,No,,,City, ,Out,0,Intermediate,90
-108.537453723,39.074844124,170,S203,24th Street south of Teller Avenue,Bench,39.07484412,-108.53745372,713024.98348582,4327968.74125824,RT9,29,:55 - :05,W, ,Y-PRIVATE,Yes,25,No,,,City, ,In,0,Intermediate,-90
-108.538301456,39.076675304,171,S204,23rd Street south of North Avenue (Veterans Hospital),No,39.0766753,-108.53830146,712946.13223682,4328170.00292224,RT9,12,:25,E, , ,Yes,25,Yes,1899/12/30 05:25:01+00,1899/12/30 05:25:01+00,City, ,Out,0,Intermediate,90
-108.538525106,39.0763808900001,172,S205,23rd Street south of North Avenue (Veterans Hospital),Bench/Shelter/Private,39.07638089,-108.53852511,712927.66865052,4328136.80049162,RT9,28,:55 - :05,W, , ,Yes,25,No,,,City, ,In,0,Intermediate,-90
-108.512502697,39.0772091540001,173,S235,North Avenue east of 29 Road,No,39.07720915,-108.5125027,715176.487866,4328290.06128076,RT10,25,:05 - :15,S, ,Yes,Yes,40,No,,,City, ,Out,0,Intermediate,180
-108.563633816,39.070426135,174,S254,Grand Avenue east of 5th Street (Central Library) ,Bench,39.07042613,-108.56363382,710773.11518288,4327417.29999216,RT9,36,:55 - :05,N, , ,Yes,30,No,,,City, ,In,0,Intermediate,0
-108.56435668,39.0699195660001,175,S259,5th Street south of Grand Ave (Central Library) ,No,39.06991957,-108.56435668,710712.0789021,4327359.39733951,RT9,3,:15 - :25,S, ,No,Yes,30,No,,,City, ,Out,0,Intermediate,180
-108.571066635,39.0658776010001,176,S288,1st Street and Pitkin Avenue (Catholic Outreach),No,39.0658776,-108.57106663,710143.50943257,4326895.22434103,RT5,35,:55 - :05,W, , ,Yes,25,No,,,City, ,In,0,Intermediate,-90
-108.505776919,39.0873554710001,177,S397,29 ½ Road north of Cedar Place,No,39.08735547,-108.50577692,715727.43813583,4329432.2020486,RT5,18,:35 - :45,E, , ,Yes,35,No,,,County, ,In,0,Intermediate,90
-108.515316435,39.0911225150001,178,S399,29 Road south of Patterson Road (Safeway),Bench,39.09112252,-108.51531643,714890.81013991,4329827.70247945,RT5,20,:35 - :45,W, , ,Yes,45,No,,,City, ,In,0,Intermediate,-90
-108.515292275,39.088378624,179,S405,29 Road at Graff Dairy,No,39.08837862,-108.51529228,714901.23294193,4329523.20318888,RT5,21,:35 - :45,W, , ,Yes,35,No,,,County, ,In,0,Intermediate,-90
-108.515290805,39.085186499,180,S401,29 Road north of Orchard Avenue,No,39.0851865,-108.5152908,714911.05386268,4329168.89881388,RT5,22,:35 - :45,W, , ,Yes,35,No,,,County, ,In,0,Intermediate,-90
-108.507240455,39.0919174640001,181,S466,Patterson Road west of 29 ½ Road (Maverick),Bench,39.09191746,-108.50724046,715586.93964207,4329935.08223055,RT5,19,:35 - :45,N, , ,Yes,45,No,,,City, ,In,0,Intermediate,0
-108.563595124,39.0632116200001,182,S87,Downtown Transfer Facility (6th Street and South Avenue) ,Bench/Shelter,39.06321162,-108.56359512,710797.93582667,4326616.62780403,RT5,1,:15,0,Transfer Station,Yes,Yes,25,Yes,1899/12/30 05:15:01+00,1899/12/30 05:15:01+00,City,Yes,Out,1,Transfer,0
-108.563595124,39.0632116200001,183,S87,Downtown Transfer Facility (6th Street and South Avenue) ,Bench/Shelter,39.06321162,-108.56359512,710797.93582667,4326616.62780403,RT5,37,:05,0,Transfer Station,Yes,Yes,25,Yes,1899/12/30 06:05:01+00,1899/12/30 06:05:01+00,City,Yes,In,1,Transfer,0
-108.542920648,39.042064543,184,S249,27 ½ Road north of B ½ Road,No,39.04206454,-108.54292065,712650.37641111,4324317.61604509,RT6,34,:55,E, ,No,Yes,30,Yes,1899/12/30 05:55:01+00,1899/12/30 05:55:01+00,City, ,In,0,Intermediate,90
-108.538365544,39.0397729320001,185,S225,27 ¾ Road south of B ½ Road  (City Market),No,39.03977293,-108.53836554,713051.54044251,4324073.929546,RT6,33,:45 - :55,N, ,No,Yes,40,No,,,City, ,In,0,Intermediate,90
-108.528714222,39.041187629,186,S73,B ½ Road east of Arlington Drive,No,39.04118763,-108.52871422,713882.69013858,4324253.61732293,RT6,31,:45 - :55,N, ,No,Yes,45,No,,,City, ,In,0,Intermediate,0
-108.542956601,39.044459687,187,S224,27 ½ Road north of Sunshine Lane,No,39.04445969,-108.5429566,712640.07881817,4324583.37664383,RT6,35,:55 - :05,E, ,No,Yes,30,No,,,City, ,In,0,Intermediate,90
-108.524666603,39.039935239,188,S69,28 ½ Road north of B 4/10 Road,No,39.03993524,-108.5246666,714236.83041803,4324124.1423833,RT6,10,:25 - :35,W, , ,Yes,30,No,,,City, ,Out,0,Intermediate,-90
-108.542997405,39.0479143040001,189,S223,27 ½ Road south of Unaweep Avenue,No,39.0479143,-108.54299741,712626.18248707,4324966.72025858,RT6,36,:55 - :05,E, ,No,Yes,30,No,,,City,No,In,0,Intermediate,90
-108.515182186,39.03307865,190,S71,29 Road north of Shelley Drive,No,39.03307865,-108.51518219,715078.60135264,4323385.50216898,RT6,13,:25 - :35,E, , ,Yes,35,No,,,County, ,Out,0,Intermediate,90
-108.51517738,39.030898431,191,S72,29 Road north of Highway 50 (Orchard Mesa Market),Bench,39.03089843,-108.51517738,715085.63066281,4323143.5234057,RT6,12,:25 - :35,E, , ,Yes,35,No,,,County, ,Out,0,Intermediate,90
-108.528713971,39.0411017970001,192,S74,B ½ Road east of Arlington Drive,No,39.0411018,-108.52871397,713882.97084271,4324244.09110686,RT6,9,:25 - :35,S, , ,Yes,30,No,,,City, ,Out,0,Intermediate,180
-108.534344944,39.0411057750001,193,S75,B ½ Road west of 28 Road,No,39.04110578,-108.53434494,713395.55094516,4324231.2976742,RT6,8,:25 - :35,S, , ,Yes,30,No,,,City, ,Out,0,Intermediate,180
-108.543105481,39.0417402250001,194,S76,27 ½ Road north of B ½ Road,No,39.04174022,-108.54310548,712635.35068565,4324281.18655561,RT6,6,:25,W, , ,Yes,30,Yes,1899/12/30 05:25:01+00,1899/12/30 05:25:01+00,City, ,Out,0,Intermediate,-90
-108.515010996,39.059281835,195,S92,29 Road across from Florida Street,No,39.05928183,-108.515011,715013.90908431,4326294.29586995,RT6,16,:35,E, , ,Yes,40,Yes,1899/12/30 05:35:01+00,1899/12/30 05:35:01+00,County, ,Out,0,Intermediate,90
-108.539144197,39.0410684330001,196,S94,B ½ Road west of 27 ¾ Road (City Market),No,39.04106843,-108.5391442,712980.24792824,4324215.89661765,RT6,7,:25 - :35,S, , ,Yes,30,No,,,City,Yes,Out,0,Intermediate,180
-108.561573185,39.0486428500001,197,S217,Unaweep Avenue west of Aspen Street,No,39.04864285,-108.56157319,711016.28355748,4325004.28877691,RT6,43,:55 - :05,N, , ,Yes,40,No,,,City, ,In,0,Intermediate,0
-108.557473267,39.04843907,198,S218,Unaweep Avenue west of Linden Avenue,No,39.04843907,-108.55747327,711371.73432517,4324991.19812782,RT6,3,:15 - :25,S, , ,Yes,35,No,,,City, ,Out,0,Intermediate,180
-108.557318254,39.0486067580001,199,S219,Unaweep Avenue west of Roubideau Street,Bench,39.04860676,-108.55731825,711384.65032977,4325010.17081526,RT6,42,:55 - :05,N, , ,Yes,35,No,,,City, ,In,0,Intermediate,0
-108.547175783,39.048321872,200,S220,Unaweep Avenue east of 27 ¼ Road,No,39.04832187,-108.54717578,712263.32365795,4325002.19013499,RT6,4,:15 - :25,S, , ,Yes,35,No,,,City, ,Out,0,Intermediate,180
-108.550131544,39.048488429,201,S221,Unaweep Avenue west of Cedar Street,No,39.04848843,-108.55013154,712007.00631298,4325013.77752283,RT6,38,:55 - :05,N, , ,Yes,30,No,,,City, ,In,0,Intermediate,0
-108.545627128,39.048484968,202,S222,Unaweep Avenue west of 27 3/8 Road (Orchard Mesa Middle School) ,Bench,39.04848497,-108.54562713,712396.86993145,4325023.91092907,RT6,37,:55 - :05,N, , ,Yes,30,No,,,City, ,In,0,Intermediate,0
-108.56667513,39.0502519660001,203,S226,Highway 50 north of Santa Clara Avenue,Bench,39.05025197,-108.56667513,710569.93531543,4325171.05545842,RT6,44,:55 - :05,E, ,No,Yes,25,No,,,City,No,In,0,Intermediate,90
-108.561625231,39.0484717850001,204,S227,Unaweep Avenue west of Aspen Street,No,39.04847179,-108.56162523,711012.28843929,4324985.18087871,RT6,2,:15 - :25,S, , ,Yes,35,No,,,City, ,Out,0,Intermediate,180
-108.543116401,39.0475495680001,205,S276,27 ½ Road south of Unaweep Avenue,No,39.04754957,-108.5431164,712616.97769881,4324925.95860664,RT6,5,:15 - :25,W, , ,Yes,30,No,,,City, ,Out,0,Intermediate,-90
-108.556875264,39.045349281,206,S277,Linden Avenue north of B ¾ Road (Linden Point),No,39.04534928,-108.55687526,711432.70866315,4324649.64418363,RT6,41,:55 - :05,E, , ,Yes,25,No,,,City,Yes,In,0,Intermediate,90
-108.552439109,39.0466195670001,207,S278,27 Road north of Milo Drive,No,39.04661957,-108.55243911,711812.87414857,4324800.96632675,RT6,39,:55 - :05,W, , ,Yes,25,No,,,City, ,In,0,Intermediate,-90
-108.515199609,39.036954462,208,S404,29 Road south of Chipeta Golf Course Entrance,No,39.03695446,-108.51519961,715065.33593322,4323815.65099461,RT6,14,:25 - :35,E, , ,Yes,25,No,,,City, ,Out,0,Intermediate,90
-108.524657408,39.0355479130001,209,S411,28 ½ Road north of B Road,No,39.03554791,-108.52465741,714250.88518912,4323637.19983731,RT6,11,:25 - :35,W, , ,Yes,30,No,,,City, ,Out,0,Intermediate,-90
-108.563595124,39.0632116200001,210,S87,Downtown Transfer Facility (6th Street and South Avenue) ,Bench/Shelter,39.06321162,-108.56359512,710797.93582667,4326616.62780403,RT6,1,:15,0,Transfer Station,Yes,Yes,30,Yes,1899/12/30 05:15:01+00,1899/12/30 05:15:01+00,City,Yes,Out,1,Transfer,0
-108.515216023,39.0415438210001,211,S485,29 Road north of B ½ Road,No,39.04154382,-108.51521602,715049.99223072,4324325.00164094,RT6,15,:25 - :35,E, , ,Yes,35,No,,,City, ,Out,0,Intermediate,90
-108.515223868,39.059591928,212,S496,29 Road north of Florida Street,No,39.05959193,-108.51522387,714994.54674544,4326328.21061884,RT6,28,:45 - :55,W, , ,Yes,45,No,,,County,No,In,0,Intermediate,-90
-108.534213213,39.0412329150001,213,S244,B ½ Road west of 28 Road,Bench,39.04123292,-108.53421321,713406.57058284,4324245.71862056,RT6,32,:45 - :55,N, ,No,Yes,45,No,,,City, ,In,0,Intermediate,0
-108.563595124,39.0632116200001,214,S87,Downtown Transfer Facility (6th Street and South Avenue),Bench/Shelter,39.06321162,-108.56359512,710797.93582667,4326616.62780403,RT6,45,:05,0,Transfer Station,Yes,Yes,40,Yes,1899/12/30 06:05:01+00,1899/12/30 06:05:01+00,City,Yes,In,1,Transfer,0
-108.580077951,39.081719165,215,S96,25 ½ Road north of Independent Avenue (Sam's Club),No,39.08171917,-108.58007795,709316.94532771,4328632.72189611,RT7,14,:25 - :35,E, , ,Yes,30,No,,,City, ,Out,0,Intermediate,90
-108.58008572,39.086463714,216,S98,25 ½ Road north of Pinyon (Food Bank),Bench,39.08646371,-108.58008572,709302.24229224,4329159.31655632,RT7,15,:25 - :35,E, , ,Yes,30,No,,,City, ,Out,0,Intermediate,90
-108.580083208,39.089439638,217,S99,25 ½ Road south of Patterson Road (Pomona Elementary),Bench,39.08943964,-108.58008321,709293.6582006,4329489.62980863,RT7,16,:25 - :35,E, , ,Yes,30,No,,,City, ,Out,0,Intermediate,90
-108.575388856,39.0810221030001,218,S102,Independent Avenue east of Poplar Drive,No,39.0810221,-108.57538886,709724.65519051,4328566.17052133,RT7,13,:25 - :35,N, , ,Yes,30,No,,,City, ,Out,0,Intermediate,0
-108.571557278,39.08102095,219,S104,Independent Avenue west of 1st Street,No,39.08102095,-108.57155728,710056.12451663,4328574.89762627,RT7,12,:25 - :35,N, , ,Yes,30,No,,,City, ,Out,0,Intermediate,0
-108.564703195,39.0775230140001,220,S110,North Avenue west of 5th Street,Bench,39.07752301,-108.56470319,710659.47392012,4328202.5252287,RT5,32,:55,N, ,No,Yes,30,Yes,1899/12/30 05:55:01+00,1899/12/30 05:55:01+00,City,Yes,In,0,Intermediate,0
-108.564065184,39.0772922470001,221,S111,North Avenue east of 5th Street,Bench/Shelter,39.07729225,-108.56406518,710715.3572403,4328178.39161904,RT7,5,:15 - :25,S, ,Yes,Yes,30,No,,,City, ,Out,0,Intermediate,180
-108.561889124,39.07751847,222,S112,North Avenue west of 7th Street,No,39.07751847,-108.56188912,710902.94226502,4328208.55153004,RT5,31,:45 - :55,N, , ,Yes,30,No,,,City,No,In,0,Intermediate,0
-108.552334831,39.067844102,223,S162,12th Street north of Main Street,No,39.0678441,-108.55233483,711758.44874239,4327156.98907707,RT1,10,:15-:25,E, ,No,Yes,30,No,,,City, ,Out,0,Intermediate,90
-108.552314918,39.071643239,224,S163,12th Street north of Ouray Avenue,Bench,39.07164324,-108.55231492,711748.81099995,4327578.71478578,RT1,12,:15-:25,E, , ,Yes,30,No,,,City, ,Out,0,Intermediate,90
-108.552231298,39.0756233120001,225,S166,12th Street south of North Avenue (Lincoln Park Barn),Bench/Shelter,39.07562331,-108.5522313,711744.14275899,4328020.67190824,RT1,13,:25,E, ,Yes,Yes,30,Yes,1899/12/30 05:25:01+00,1899/12/30 05:25:01+00,City,Yes,Out,0,Intermediate,90
-108.580091182,39.0929489600001,226,S214,25 ½ Road south of Dewey Place,Bench,39.09294896,-108.58009118,709282.58883669,4329879.1226204,RT7,17,:25 - :35,E, grass preventing safe ADA accessibility , ,Yes,30,No,,,City, ,Out,0,Intermediate,90
-108.580266787,39.093199391,227,S215,25 ½ Road north of Patterson Road,Bench,39.09319939,-108.58026679,709266.65938385,4329906.51399805,RT7,27,:45 - :55,W, , ,Yes,30,No,,,City, ,In,0,Intermediate,-90
-108.582433191,39.096905657,228,S216,Blichmann Avenue east of Hollingsworth Street (Xcel Energy),No,39.09690566,-108.58243319,709068.32602987,4330312.89387127,RT7,18,:25 - :35,N, , ,Yes,30,No,,,City, ,Out,0,Intermediate,0
-108.582021313,39.096773123,229,S238,Blichmann Avenue east of Hollingsworth Street (Excel Energy),No,39.09677312,-108.58202131,709104.34091636,4330299.13203453,RT7,26,:45 - :55,S, , ,Yes,30,No,,,City, ,In,0,Intermediate,180
-108.602078353,39.090466206,230,S284,Mesa Mall at Cabelas (no sign),No,39.09046621,-108.60207835,707388.10367613,4329553.10540871,RT11,16,:45 - :55,NW, ,No,Yes,30,No,,,Private,No,In,0,Intermediate,-45
-108.587984024,39.0967777650001,231,S345,Blichmann Avenue east of 25 Road (Western Colorado Community College Inbound),Bench/Private,39.09677777,-108.58798402,708588.61501282,4330285.93100713,RT7,25,:45 - :55,S, , ,Yes,30,No,,,City,No,In,0,Intermediate,180
-108.559153385,39.067388781,232,S365,Main Street east of 8th Street (Ratekin Towers),No,39.06738878,-108.55915338,711169.82870829,4327090.57958148,RT1,46,:55 ,N, ,No,Yes,30,Yes,1899/12/30 05:55:01+00,1899/12/30 05:55:01+00,City, ,In,0,Intermediate,0
-108.552330533,39.069773614,233,S369,12th Street south of Grand Avenue,No,39.06977361,-108.55233053,711753.05095619,4327371.16218284,RT1,11,:15-:25,E, ,No,Yes,30,No,,,City, ,Out,0,Intermediate,90
-108.554501811,39.0673879830001,234,S376,Main Street west of 11th Street,No,39.06738798,-108.55450181,711572.31269396,4327101.31386664,RT1,45,:45-:55 ,N, ,No,Yes,30,No,,,City, ,In,0,Intermediate,0
-108.592148748,39.0954016740001,235,S416,F 1/4 Road west of Mesa Canyon Lane,No,39.09540167,-108.59214875,708232.46037422,4330123.63408959,RT7,24,:45 - :55,S, , ,Yes,30,No,,,City, ,In,0,Intermediate,180
-108.587989778,39.0969126420001,236,S417,Blichmann Avenue east of 25 Road (Western Colorado Community College Outbound),Bench/Shelter/Private,39.09691264,-108.58798978,708587.71969176,4330300.88819324,RT7,19,:35,N, , ,Yes,30,Yes,1899/12/30 05:35:01+00,1899/12/30 05:35:01+00,City, ,Out,0,Intermediate,0
-108.592153562,39.0955362620001,237,S425,F 1/4 Road west of Zenith Lane,Bench,39.09553626,-108.59215356,708231.64787645,4330138.56139997,RT7,20,:35 - :45,N, dirt preventing safe ADA accessibility , ,Yes,30,No,,,City, ,Out,0,Intermediate,0
-108.61446486,39.1062562700001,238,S427,G Road at Community Hospital,Bench/Shelter,39.10625627,-108.61446486,706270.66298279,4331277.47225941,RT8,34,:25 - :35,S, , Yes,Yes,35,No,,,City, Yes,In,0,Intermediate,180
-108.597854873,39.0929541260001,239,S478,West Transfer Facility,Bench/Shelter,39.09295413,-108.59785487,707746.11778253,4329838.90179178,RT7,22,:45,0,Transfer Station,Yes,Yes,30,Yes,1899/12/30 05:40:01+00,1899/12/30 05:45:01+00,City,No,In,1,Transfer,0
-108.563595124,39.0632116200001,240,S87,Downtown Transfer Facility (6th Street and South Avenue) ,Bench/Shelter,39.06321162,-108.56359512,710797.93582667,4326616.62780403,RT7,40,:05,0,Transfer Station,Yes,Yes,30,Yes,1899/12/30 06:05:01+00,1899/12/30 06:05:01+00,City,Yes,In,1,Transfer,0
-108.738331207,39.151517244,241,S293,Highway 340 south of Jurassic Avenue (Dinosaur Museum),No,39.15151724,-108.73833121,695433.89636628,4336026.89196314,RT8,22,:05 - :15,W, , ,Yes,25,No,,,CDOT, ,Out,0,Intermediate,-90
-108.719615292,39.1636706730001,242,S296,Pine Street south of Ottley Avenue,Bench,39.16367067,-108.71961529,697017.41874551,4337416.32517187,RT8,17,:55 - :05,E, , ,Yes,45,No,,,Fruita, ,Out,0,Intermediate,90
-108.719600892,39.1570442510001,243,S297,Pine Street north of Carolina Avenue,Bench,39.15704425,-108.71960089,697037.15826304,4336680.87592034,RT8,15,:55 - :05,E, , ,Yes,90,No,,,Fruita, ,Out,0,Intermediate,90
-108.718438302,39.148031937,244,S298,Highway 6 and 50 east of Pine Street (Fruita High School),Bench/Shelter/Private,39.14803194,-108.7184383,697162.78543579,4335683.10794504,RT8,13,:55 - :05,NE, ,Yes,Yes,90,No,,,County/CDOT,Yes,Out,0,Intermediate,26
-108.719627637,39.159253934,245,S299,Pine Street north of Aspen Avenue,No,39.15925393,-108.71962764,697028.67990349,4336926.07509572,RT8,16,:55 - :05,E, , ,Yes,90,No,,,Fruita, ,Out,0,Intermediate,90
-108.719569251,39.152889009,246,S300,Pine Street south of Kiefer Avenue (Dollar General) ,No,39.15288901,-108.71956925,697051.48910575,4336219.74593727,RT8,14,:55 - :05,E, , ,Yes,90,No,,,Fruita, ,Out,0,Intermediate,90
-108.642384866,39.1099644700001,247,S308,Highway 6 and 50 south of I-70  (Red Roof Inn),No,39.10996447,-108.64238487,703845.52511325,4331625.98123042,RT8,9,:45 - :55,NE, , ,Yes,80,No,,,City/CDOT, ,Out,0,Intermediate,56
-108.719812025,39.1564938440001,248,S306,Pine Street north of Carolina Avenue,No,39.15649384,-108.71981202,697020.44941572,4336619.32630207,RT8,28,:15 - :25,W, , ,Yes,30,No,,,Fruita, ,In,0,Intermediate,-90
-108.719809142,39.1528929730001,249,S307,Pine Street north of Kiefer Avenue,No,39.15289297,-108.71980914,697030.74684087,4336219.66460722,RT8,29,:15 - :25,W, , ,Yes,30,No,,,Fruita, ,In,0,Intermediate,-90
-108.738423573,39.161800026,250,S314,Coulson Street at Independence Village,Bench,39.16180003,-108.73842357,695397.45290489,4337167.99706411,RT8,20,:05,W, , ,Yes,25,Yes,1899/12/30 05:05:01+00,1899/12/30 05:05:01+00,Fruita, ,Out,0,Intermediate,-90
-108.729246844,39.1588023840001,251,S315,Aspen Street east of Elm Street (Chamber Of Commerce),Bench,39.15880238,-108.72924684,696198.7272504,4336855.09914222,RT8,26,:15,S, grass preventing safe ADA accessibility , ,Yes,25,Yes,1899/12/30 05:15:01+00,1899/12/30 05:15:01+00,Fruita, ,In,0,Intermediate,180
-108.719808197,39.1497242630001,252,S317,Pine Street north of Highway 6 And 50 (Car Wash),No,39.14972426,-108.7198082,697039.67026829,4335867.96541115,RT8,30,:15 - :25,W, , ,Yes,30,No,,,Fruita,No,In,0,Intermediate,-90
-108.724276321,39.164401663,253,S354,Ottley Avenue east of Sycamore Street,No,39.16440166,-108.72427632,696612.64225881,4337487.3413077,RT8,18,:55 - :05,N, , ,Yes,25,No,,,Fruita, ,Out,0,Intermediate,0
-108.72850956,39.1644065150001,254,S358,Ottley Avenue east of Maple Street,No,39.16440652,-108.72850956,696246.85616733,4337478.7083353,RT8,19,:55 - :05,N, , ,Yes,25,No,,,Fruita, ,Out,0,Intermediate,0
-108.734789736,39.1520533890001,255,S460,Kokopelli Boulevard north of Jurassic Avenue,Bench,39.15205339,-108.73478974,695738.46614322,4336094.0373261,RT8,24,:05 - :15,E, , ,Yes,25,No,,,Fruita, ,In,0,Intermediate,90
-108.597854873,39.0929541260001,256,S478,West Transfer Facility,Bench/Shelter,39.09295413,-108.59785487,707746.11778253,4329838.90179178,RT8,38,:35,0,Transfer Station,Yes,Yes,45,Yes,1899/12/30 05:35:01+00,1899/12/30 05:35:01+00,City,No,In,1,Transfer,0
-108.597854873,39.0929541260001,257,S478,West Transfer Facility,Bench/Shelter,39.09295413,-108.59785487,707746.11778253,4329838.90179178,RT8,1,:45,0,Transfer Station,Yes,Yes,45,Yes,1899/12/30 04:45:01+00,1899/12/30 04:45:01+00,City,Yes,Out,1,Transfer,0
-108.653648485,39.11489047,258,S481,Highway 6 and 50 west of Valley Court,Bench,39.11489047,-108.65364849,702857.39814359,4332147.49432231,RT8,10,:45 - :55,N, , ,Yes,80,No,,,County/CDOT, ,Out,0,Intermediate,26
-108.631498621,39.106413418,259,S480,G Road west of Arrowest Road,No,39.10641342,-108.63149862,704797.17173209,4331256.34553614,RT8,8,:45 - :55,N, , ,Yes,90,No,,,City, ,Out,0,Intermediate,0
-108.676213096,39.126295328,260,S482,Highway 6 and 50 east of 20 Road,No,39.12629533,-108.6762131,700873.90775418,4333363.15166602,RT8,12,:55,NE, , ,Yes,90,Yes,1899/12/30 04:55:01+00,1899/12/30 04:55:01+00,County/CDOT, ,Out,0,Intermediate,28
-108.671483301,39.1239280950001,261,S510,Highway 6 and 50 west of 21 Road (Church),No,39.12392809,-108.6714833,701289.55091288,4333110.88851582,RT8,11,:45 - :55,NE, , ,Yes,90,No,,,County/CDOT, ,Out,0,Intermediate,26
-108.737373154,39.150455148,262,S264,Kokopelli Boulevard east of Highway 340,Bench,39.15045515,-108.73737315,695519.63258031,4335911.07316092,RT8,23,:05 - :15,S, , ,Yes,25,No,,,Fruita, ,In,0,Intermediate,180
-108.734889584,39.1578441360001,263,S50,Plum Street south of Aspen Avenue (City Market),Bench,39.15784414,-108.73488958,695713.78493236,4336736.5472145,RT8,25,:05 - :15,W, , ,Yes,25,No,,,Fruita,No,In,0,Intermediate,-90
-108.508763284,39.077209856,264,S90,North Avenue west of 29 ½ Road (Career Center),Bench/Shelter,39.07720986,-108.50876328,715499.99911577,4328299.00513485,RT9,19,:25 - :35,S,"just shelter, no bench",Yes,Yes,35,No,,,City, ,Out,0,Intermediate,180
-108.558552348,39.0772778780001,265,S283,North Avenue east of 8th Street,Bench/Shelter,39.07727788,-108.55855235,711192.33601476,4328189.6009238,RT5,5,:15 - :25,S, ,Yes,Yes,30,No,,,City,No,Out,0,Intermediate,180
-108.536540454,39.077247286,266,S117,North Avenue east of 23rd Street (Teller Arms),Bench,39.07724729,-108.53654045,713096.76322368,4328237.61966485,RT9,13,:25 - :35,S, , ,Yes,35,No,,,City, ,Out,0,Intermediate,180
-108.531275358,39.077256022,267,S119,North Avenue east of 28 Road,Bench/Shelter,39.07725602,-108.53127536,713552.24202712,4328250.95573243,RT9,14,:25 - :35,S, ,Yes,Yes,35,No,,,CIty, ,Out,0,Intermediate,180
-108.53420082,39.077489627,268,S120,North Avenue west of 28 Road (Red Cliff Pointe),Bench/Shelter,39.07748963,-108.53420082,713298.44441054,4328270.00991561,RT9,27,:55,N, ,Yes,Yes,35,Yes,1899/12/30 05:55:01+00,1899/12/30 05:55:01+00,City,Yes,In,0,Intermediate,0
-108.527039786,39.0774750030001,269,S121,North Avenue east of 28 ¼ Road (East Gate Shopping Center),Bench,39.077475,-108.52703979,713918.01739493,4328285.22876136,RT9,26,:45 - :55,N, , ,Yes,40,No,,,City, ,In,0,Intermediate,0
-108.528509652,39.0772430430001,270,S122,North Avenue east of 28 ¼ Road (Solaris Square),Bench/Shelter,39.07724304,-108.52850965,713791.55406097,4328256.02160462,RT9,15,:25 - :35,S, ,Yes,Yes,35,No,,,City,Yes,Out,0,Intermediate,180
-108.523028827,39.077222669,271,S123,North Avenue east of 28 ½ Road (Homeward Bound),Bench/Shelter,39.07722267,-108.52302883,714265.78514925,4328266.67596817,RT9,16,:25 - :35,S, ,Yes,Yes,35,No,,,City,Yes,Out,0,Intermediate,180
-108.519294325,39.077184215,272,S124,North Avenue east of 28 ¾ Rd (Walmart),Bench/Shelter,39.07718422,-108.51929432,714588.98969138,4328271.2246311,RT9,17,:25 - :35,S, ,Yes,Yes,35,No,,,City, ,Out,0,Intermediate,180
-108.509864689,39.077430706,273,S125,North Avenue east of 29 ¼ Road,Bench,39.07743071,-108.50986469,715404.03967001,4328320.90546382,RT9,23,:45 - :55,N, , ,Yes,40,No,,,City, ,In,0,Intermediate,0
-108.521522134,39.0774739770001,274,S127,North Avenue west of 28 ¾ Road (Texas Road House),Bench,39.07747398,-108.52152213,714395.37455303,4328298.12517983,RT9,25,:45 - :55,N, , ,Yes,40,No,,,City,Yes,In,0,Intermediate,0
-108.539879612,39.0774937950001,275,S160,North Avenue west of 23rd Street (Veterans Hospital),No,39.0774938,-108.53987961,712807.13799842,4328257.15142579,RT5,28,:45 - :55,N, ,Yes,Yes,35,No,,,City,Yes,In,0,Intermediate,0
-108.512502697,39.0772091540001,276,S235,North Avenue east of 29 Road,No,39.07720915,-108.5125027,715176.487866,4328290.06128076,RT9,18,:25 - :35,S, ,Yes,Yes,35,No,,,City, ,Out,0,Intermediate,180
-108.549587849,39.0775000300001,277,S291,North Avenue west of 14th Street,No,39.07750003,-108.54958785,711967.22393977,4328235.14141204,RT5,29,:45 - :55,N, , ,Yes,35,No,,,City,Yes,In,0,Intermediate,0
-108.539789109,39.0772406140001,278,S256,North Avenue west of 23rd Street (Veterans Hospital),No,39.07724061,-108.53978911,712815.72887831,4328229.26200142,RT5,8,:25 - :35,S, , ,Yes,35,No,,,City,Yes,Out,0,Intermediate,180
-108.516701398,39.077436162,279,S292,North Avenue west of 29 Road (Big O Tires),Bench,39.07743616,-108.5167014,714812.55077896,4328305.31876795,RT9,24,:45 - :55,N, , ,Yes,40,No,,,City,Yes,In,0,Intermediate,0
-108.55648238,39.0775115760001,280,S424,North Avenue east of Cannell Street (Colorado Mesa University),No,39.07751158,-108.55648238,711370.71906486,4328220.35518984,RT5,30,:45 - :55,N, , ,Yes,30,No,,,City,Yes,In,0,Intermediate,0
-108.503868414,39.0772103310001,281,S434,North Avenue east of Harmony Drive (True Value) ,No,39.07721033,-108.50386841,715923.4751964,4328310.68353844,RT9,20,:25 - :35,S, , ,Yes,35,No,,,County, ,Out,0,Intermediate,180
-108.563595124,39.0632116200001,282,S87,Downtown Transfer Facility (6th Street and South Avenue),Bench/Shelter,39.06321162,-108.56359512,710797.93582667,4326616.62780403,RT9,1,:15,0,Transfer Station,Yes,Yes,30,Yes,1899/12/30 05:15:01+00,1899/12/30 05:15:01+00,City,Yes,Out,1,Transfer,0
-108.459892487,39.086014978,283,S82,Clifton Transfer Station (32 Road and I-70 Business Loop),Bench/Shelter,39.08601498,-108.45989249,719700.71578586,4329393.42877605,RT9,21,:35 - :45,0,Transfer Station,Yes,Yes,25,Yes,1899/12/30 05:35:01+00,1899/12/30 05:45:01+00,County/CDOT,Yes,Out,1,Transfer,0
-108.554478035,39.0772789230001,284,S491,North Avenue west of 11th Street (Colorado Mesa University),Bench,39.07727892,-108.55447804,711544.81715307,4328199.19861402,RT5,6,:15 - :25,S, , ,Yes,30,No,,,City,No,Out,0,Intermediate,180
-108.563595124,39.0632116200001,285,S87,Downtown Transfer Facility (6th Street and South Avenue) ,Bench/Shelter,39.06321162,-108.56359512,710797.93582667,4326616.62780403,RT9,38,:05,0,Transfer Station,Yes,Yes,30,Yes,1899/12/30 06:05:01+00,1899/12/30 06:05:01+00,City,Yes,In,1,Transfer,0
-108.459622436,39.0810166900001,286,S31,32 Road north of Kennedy Avenue ,Bench,39.08101669,-108.45962244,719739.59457062,4328839.29592429,RT10,2,:45 - :55,W, , ,Yes,25,No,,,County/CDOT, ,Out,0,Intermediate,-90
-108.463827598,39.0628716100001,287,S35,D Road west of Roberts Road, ,39.06287161,-108.4638276,719432.03133854,4326815.11590557,RT10,16,:55 - :05,N, , ,Yes,45,No,,,City, ,Out,0,Intermediate,0
-108.47601873,39.062903944,288,S36,D Road east of Crystal Drive , ,39.06290394,-108.47601873,718377.00128312,4326789.3297549,RT10,18,:55 - :05,N, , ,Yes,45,No,,,City, ,Out,0,Intermediate,0
-108.459226287,39.0722447100001,289,S52,32 Road north Of D ½ Road,Bench,39.07224471,-108.45922629,719801.10014161,4327866.60731453,RT10,43,:25 - :35,E, , ,Yes,45,No,,,County/CDOT, ,In,0,Intermediate,90
-108.45922892,39.075012379,290,S38,32 Road and Hill Ave,Bench,39.07501238,-108.45922892,719792.28004255,4328173.79868207,RT10,44,:25 - :35,E, , ,Yes,45,No,,,County/CDOT, ,In,0,Intermediate,90
-108.459276252,39.0785501840001,291,S39,32 Road north of E Road (Corner Store),Bench,39.07855018,-108.45927625,719777.20124817,4328566.36330912,RT10,45,:25 - :35,E, , ,Yes,45,No,,,County/CDOT, ,In,0,Intermediate,90
-108.459271199,39.0814311510001,292,S40,32 Road and Elm Avenue,Bench,39.08143115,-108.4592712,719768.69333792,4328886.14912466,RT10,46,:25 - :35,E, , ,Yes,45,No,,,County/CDOT, ,In,0,Intermediate,90
-108.440922725,39.0816080490001,293,S41,33 Road north of San Felipe Avenue, ,39.08160805,-108.44092273,721355.46946042,4328950.34856393,RT10,9,:45 - :55,W, , ,Yes,30,No,,,County, ,Out,0,Intermediate,-90
-108.448159152,39.084480834,294,S42,E 1/2 Road west of 32 5/8 Road , ,39.08448083,-108.44815915,720720.48673241,4329251.60053861,RT10,7,:45 - :55,S, , ,Yes,30,No,,,County, ,Out,0,Intermediate,180
-108.450091087,39.0835553410001,295,S43,32 ½ Road south of E ½ Road, ,39.08355534,-108.45009109,720556.24609831,4329144.18085174,RT10,6,:45 - :55,E, , ,Yes,30,No,,,County, ,Out,0,Intermediate,90
-108.450099356,39.0817004640001,296,S44,32 ½ Road south of Lucile Avenue, ,39.08170046,-108.45009936,720561.31109012,4328938.27793372,RT10,5,:45 - :55,E, , ,Yes,30,No,,,County, ,Out,0,Intermediate,90
-108.440846533,39.0777262280001,297,S45,33 Road north of E Road, ,39.07772623,-108.44084653,721374.20096669,4328519.66947678,RT10,10,:55,W, , ,Yes,30,Yes,1899/12/30 04:55:01+00,1899/12/30 04:55:01+00,County, ,Out,0,Intermediate,-90
-108.446949734,39.070125918,298,S48,D ½ Road west of Pera Street (Rocky Mountain Elementary), ,39.07012592,-108.44694973,720869.89350444,4327661.21139968,RT10,12,:55 - :05,N, , ,Yes,30,No,,,County, ,Out,0,Intermediate,0
-108.493811578,39.0699951730001,299,S66,D ½ Road east of Colorow Drive (Pear Park Elementary), ,39.06999517,-108.49381158,716815.63303441,4327533.79822123,RT10,33,:15 - :25,S, , ,Yes,40,No,,,City, ,In,0,Intermediate,180
-108.486047373,39.070003156,300,S61,D 1/2 Road east of 30 1/2 Road ,No,39.07000316,-108.48604737,717487.39554311,4327553.24521002,RT10,34,:15 - :25,S, , ,Yes,40,No,,,City, ,In,0,Intermediate,180
-108.482574781,39.0699989550001,301,S56,D 1/2 Road across from 30 3/4 Road , ,39.06999895,-108.48257478,717787.86985994,4327561.0990884,RT10,35,:15 - :25,S, , ,Yes,40,No,,,City, ,In,0,Intermediate,180
-108.478983327,39.0700166,302,S57,D ½ Road west of 31 Road,Bench,39.0700166,-108.47898333,718098.56144396,4327571.67458121,RT10,36,:15 - :25,S, gravel preventing safe ADA accessibility ,Yes,Yes,40,No,,,City, ,In,0,Intermediate,180
-108.498933728,39.0845306890001,303,S78,Orchard Avenue west of Hall Avenue,No,39.08453069,-108.49893373,716328.02376483,4329134.9466408,RT10,30,:05 - :15,S, , ,Yes,35,No,,,City, ,In,0,Intermediate,180
-108.504170108,39.084506639,304,S344,Orchard Avenue east of 29 ½ Road,No,39.08450664,-108.50417011,715875.12056275,4329119.81597875,RT10,29,:05 - :15,S, , ,Yes,35,No,,,City, ,In,0,Intermediate,180
-108.508763284,39.077209856,305,S90,North Avenue west of 29 ½ Road (Career Center),Bench/Shelter,39.07720986,-108.50876328,715499.99911577,4328299.00513485,RT10,26,:05 - :15,S,"just shelter, no bench",Yes,Yes,35,No,,,City, ,Out,0,Intermediate,180
-108.505688337,39.0789364600001,306,S93,29 1/2 Road at Community Services Campus,Bench/Shelter,39.07893646,-108.50568834,715760.76419434,4328497.94900989,RT10,27,:05 - :15,E, ,Yes,Yes,35,No,,,City,Yes,In,0,Intermediate,90
-108.442187553,39.084475823,307,S348,E 1/2 Road west of Honeycomb Lane , ,39.08447582,-108.44218755,721237.08441281,4329265.57647673,RT10,8,:45 - :55,S, , ,Yes,30,No,,,County, ,Out,0,Intermediate,180
-108.450130783,39.07789883,308,S351,32 ½ Road north of E Road, ,39.07789883,-108.45013078,720570.43850876,4328516.23783109,RT10,4,:45 - :55,E, , ,Yes,30,No,,,County, ,Out,0,Intermediate,90
-108.455959997,39.0772066390001,309,S350,E Road east of Green Acres Street,No,39.07720664,-108.45596,720068.2791936,4328425.26674621,RT10,3,:45 - :55,S, , ,Yes,30,No,,,County, ,Out,0,Intermediate,180
-108.455532365,39.0628325650001,310,S438,D Road west of Riverwood Drive,Bench,39.06283257,-108.45553236,720149.96196948,4326830.85090443,RT10,41,:25 - :35,N, dirt preventing safe ADA accessibility , ,Yes,25,No,,,County, ,In,0,Intermediate,0
-108.450274764,39.06605663,311,S440,32 1/2 Road south of D 1/4 Road , ,39.06605663,-108.45027476,720594.87478663,4327201.46022246,RT10,40,:25,W, bus stopper reflective and responsive product, ,Yes,25,Yes,1899/12/30 05:25:01+00,1899/12/30 05:25:01+00,County, ,In,0,Intermediate,-90
-108.496672323,39.0819966460001,312,S445,30 Road north of Texas Avenue, ,39.08199665,-108.49667232,716531.40063006,4328859.07119844,RT10,31,:15,W, , ,Yes,35,Yes,1899/12/30 05:15:01+00,1899/12/30 05:15:01+00,City, ,In,0,Intermediate,-90
-108.470134377,39.069995245,313,S448,D ½ Road and Clear Creek Drive,Bench,39.06999525,-108.47013438,718864.27217586,4327590.58827787,RT10,37,:15 - :25,S, , ,Yes,40,No,,,County, ,In,0,Intermediate,180
-108.459892487,39.086014978,314,S82,Clifton Transfer Station (32 Road and I-70 Business Loop) ,Bench/Shelter,39.08601498,-108.45989249,719700.71578586,4329393.42877605,RT10,1,:45,0,Transfer Station,Yes,Yes,25,Yes,1899/12/30 04:45:01+00,1899/12/30 04:45:01+00,County/CDOT,Yes,Out,1,Transfer,0
-108.460869958,39.070002425,315,S502,D ½ Road west of 32 Road (Chatfield Elementary),Bench,39.07000243,-108.46086996,719665.84396472,4327613.7485198,RT10,38,:15 - :25,S, , ,Yes,35,No,,,County, ,In,0,Intermediate,180
-108.441387497,39.070115705,316,S508,D ½ Road west of 33 Road, ,39.0701157,-108.4413875,721351.19291467,4327673.61768508,RT10,11,:55 - :05,N, , ,Yes,30,No,,,County, ,Out,0,Intermediate,0
-108.514992985,39.0762587510001,317,S34,29 Road south of North Avenue,No,39.07625875,-108.51499299,714963.92780009,4328178.67504454,RT10,24,:05 - :15,E, , ,Yes,35,No,,,City, ,Out,0,Intermediate,90
-108.459892487,39.086014978,318,S82,Clifton Transfer Station (32 Road and I-70 Business Loop) ,Bench/Shelter,39.08601498,-108.45989249,719700.71578586,4329393.42877605,RT10,47,:35,0,Transfer Station,Yes,Yes,25,Yes,1899/12/30 05:35:01+00,1899/12/30 05:35:01+00,County/CDOT,Yes,In,1,Transfer,0
-108.572301699,39.06869664,319,S161,Spruce Street north of Rood Avenue (Justice Center),Bench/Shelter,39.06869664,-108.5723017,710028.28187734,4327205.26197702,RT11,25,:55 - :05,W, advertisements are dirty and the paint on the shelter is faded,Yes,Yes,25,No,,,City,Yes,In,0,Intermediate,-90
-108.573346223,39.071660396,320,S261,Mulberry Street north of West Ouray Avenue ,No,39.0716604,-108.57334622,709929.11897079,4327531.80390249,RT11,24,:55 - :05,W, , ,Yes,25,No,,,City, ,In,0,Intermediate,-90
-108.593460392,39.0854549360001,321,S262,24 ¾ Road north of Highway 6 and  50 (Grand Mesa Center),Bench/Shelter,39.08545494,-108.59346039,708148.27120756,4329016.60786995,RT11,13,:35,SE, ,Yes,Yes,25,Yes,1899/12/30 05:35:01+00,1899/12/30 05:35:01+00,City, ,Out,0,Intermediate,128
-108.577163951,39.074189459,322,S272,Maldonado Street north of Gunnison Avenue (Mesa Fitness),No,39.07418946,-108.57716395,709591.32115789,4327803.6964262,RT11,8,:25 - :35,E, , ,Yes,25,No,,,City, ,Out,0,Intermediate,84
-108.57735009,39.073571207,323,S273,Maldonado Street south of American Way,No,39.07357121,-108.57735009,709577.04692451,4327734.64520448,RT11,23,:55 - :05,W, , ,Yes,25,No,,,City, ,In,0,Intermediate,-90
-108.580390595,39.078526729,324,S274,Rimrock Avenue accross from Walmart ,Bench,39.07852673,-108.5803906,709299.3379446,4328277.66296376,RT11,10,:25 - :35,N, , ,Yes,25,No,,,City, ,Out,0,Intermediate,0
-108.583260052,39.0783742130001,325,S275,Rim Rock Avenue at Lowe's ,Bench/Shelter,39.07837421,-108.58326005,709051.54607456,4328254.12609292,RT11,20,:45 - :55,SW, paint faded on shelter,Yes,Yes,25,No,,,City, ,In,0,Intermediate,209
-108.572995851,39.069595936,326,S462,Rice Street north of White Avenue (Mesa County Sheriff),Bench,39.06959594,-108.57299585,709965.55464117,4327303.4729559,RT11,4,:15 - :25,E, ,Yes,Yes,25,No,,,City, ,Out,0,Intermediate,90
-108.573175092,39.0713090580001,327,S463,Mulberry Street north of West Ouray Avenue,No,39.07130906,-108.57317509,709944.9669974,4327493.20339703,RT11,7,:25 ,E, , ,Yes,25,Yes,1899/12/30 05:25:01+00,1899/12/30 05:25:01+00,City, ,Out,0,Intermediate,90
-108.580294588,39.077183952,328,S464,Base Rock Road south of Rimrock Avenue (Walmart),No,39.07718395,-108.58029459,709311.61379163,4328128.84517296,RT11,21,:55,W, , ,Yes,25,Yes,1899/12/30 05:55:01+00,1899/12/30 05:55:01+00,City, ,In,0,Intermediate,-90
-108.597854873,39.0929541260001,329,S478,West Transfer Facility,Bench/Shelter,39.09295413,-108.59785487,707746.11778253,4329838.90179178,RT11,15,:45,0,Transfer Station,Yes,Yes,30,Yes,1899/12/30 05:40:01+00,1899/12/30 05:45:01+00,City,Yes,In,1,Transfer,0
-108.563595124,39.0632116200001,330,S87,Downtown Transfer Facility (6th Street and South Avenue),Bench/Shelter,39.06321162,-108.56359512,710797.93582667,4326616.62780403,RT11,1,:15,0,Transfer Station,Yes,Yes,30,Yes,1899/12/30 05:15:01+00,1899/12/30 05:15:01+00,City,Yes,Out,1,Transfer,0
-108.587166282,39.067123673,331,S476,Power Road at Safeway ,No,39.06712367,-108.58716628,708746.77535622,4326996.41259928,RT11,5,:15 - :25,S, , ,Yes,35,No,,,City, ,Out,0,Intermediate,192
-108.580195268,39.0675616080001,332,S295,Highway 340 west of West Avenue (Riverside),Bench,39.06756161,-108.58019527,709348.65375081,4327061.0612902,RT11,6,:15 - :25,S, no cut outs onto sidewalk for ADA accessibility ,Yes,Yes,35,No,,,City/CDOT, ,Out,0,Intermediate,165
-108.584828872,39.080156994,333,S504,Bogart Lane south of West Independent Avenue (Sonic) ,No,39.08015699,-108.58482887,708910.56293753,4328448.39267061,RT11,19,:45 - :55,W, , ,Yes,25,No,,,City, ,In,0,Intermediate,-90
-108.584643202,39.080285722,334,S509,Bogart Lane south of West Independent Avenue (Chick Fil-A),No,39.08028572,-108.5846432,708926.24533556,4328463.10759094,RT11,11,:25 - :35,E, , ,Yes,25,No,,,City, ,Out,0,Intermediate,90
-108.591880703,39.082701801,335,S505,West Independent Avenue east of 24 ¾ Road (behind Cottonwood Mall),No,39.0827018,-108.5918807,708293.02162574,4328714.65107636,RT11,12,:25 - :35,NE, , ,Yes,25,No,,,City, ,Out,0,Intermediate,28
-108.591965058,39.082608759,336,S506,West Independent Avenue east of 24 ¾ Road (behind Cottonwood Mall),No,39.08260876,-108.59196506,708285.99809715,4328704.13069281,RT11,18,:45 - :55,SW, ,Yes,Yes,25,No,,,City, ,In,0,Intermediate,208
-108.595281805,39.0852137620001,337,S32,Frontage Road west of 24 ¾ Road,No,39.08521376,-108.5952818,707991.42182042,4328985.66591888,RT11,17,:45 - :55,S, , ,Yes,25,No,,,City, ,In,0,Intermediate,205
-108.563595124,39.0632116200001,338,S87,Downtown Transfer Facility (6th Street and South Avenue) ,Bench/Shelter,39.06321162,-108.56359512,710797.93582667,4326616.62780403,RT11,29,:05,0,Transfer Station,Yes,Yes,30,Yes,1899/12/30 06:05:01+00,1899/12/30 06:05:01+00,City,Yes,In,1,Transfer,0
-108.557472636,39.084552918,339,S271,Orchard Avenue west of Cannell Street,No,39.08455292,-108.55747264,711264.03186006,4328999.59440153,RT3,7,:15 - :25,S, , ,Yes,40,No,,,City,No,Out,0,Intermediate,180
-108.554333339,39.0845122100001,340,S290,Orchard Avenue west of 12th Street (Colorado Mesa University Tennis Courts),No,39.08451221,-108.55433334,711535.71806941,4329002.38405786,RT3,8,:15 - :25,S, , ,Yes,40,No,,,City,No,Out,0,Intermediate,180
-108.510750728,39.084480338,341,S49,Orchard Avenue west of 29 ¼ Road (Bookcliff Middle School),No,39.08448034,-108.51075073,715305.94006088,4329101.27361552,RT3,17,:25 - :35,S, , ,Yes,35,No,,,County, ,Out,0,Intermediate,180
-108.406391681,39.091769905,342,S512,F Road west of 35 Road,No,39.0917699,-108.40639168,724310.54681934,4330163.0165735,RT4,27,:15 - :25,N, ,No,Yes,40,No,,,County, ,In,0,Intermediate,0
-108.469677075,39.062904545,343,S435,D Road west of 31 ½ Road, ,39.06290455,-108.46967708,718925.75879275,4326804.65924396,RT10,17,:55 - :05,N, , ,Yes,45,No,,,City,Yes,Out,0,Intermediate,0
-108.40790365,39.0969979600001,344,S475,Highway 6 at Mount Garfield Middle School (Inside Parking Lot),No,39.09699796,-108.40790365,724163.19791205,4330739.57710038,RT4,7,:55 Outbound  :15-:25 Inbound,0,Bus stops In-Bound and Out-Bound, ,Yes,25,Yes,1899/12/30 04:55:01+00,1899/12/30 04:55:01+00,Private,Yes,Out,0,Intermediate,180
-108.550296558,39.077259198,345,S183,North Avenue east of 12th Street (Stocker Stadium),No,39.0772592,-108.55029656,711906.63185517,4328206.75684199,RT5,7,:25,S, , ,Yes,30,Yes,1899/12/30 05:25:01+00,1899/12/30 05:25:01+00,City,Yes,Out,0,Intermediate,180
-108.505365888,39.077434569,346,S33,North Avenue east of 29 ½ Road (Community Services Campus),Bench/Shelter,39.07743457,-108.50536589,715793.23834896,4328332.01373216,RT9,22,:45 - :55,N, ,Yes,Yes,40,No,,,County,No,In,0,Intermediate,0
-108.447503267,39.088654133,347,S58,Front Street east of 3rd Street,No,39.08865413,-108.44750327,720764.20537072,4329716.41255296,RT4,3,:45 - :55,S, ,No,Yes,25,No,,,County, ,Out,0,Intermediate,166
-108.450346044,39.0902168370001,348,S452,1st Street and Grand Avenue (Peachtree Shopping Center),No,39.09021684,-108.45034604,720513.43130565,4329882.95756365,RT4,2,:45 - :55,W, ,No,Yes,20,No,,,County, ,Out,0,Intermediate,-90
-108.553547543,39.091965241,349,S237,Patterson Road west of 12th Street (Life Center),Bench/Shelter,39.09196524,-108.55354754,711581.40858954,4329831.45421864,RT2,23,:55 - :05,N, , ,Yes,30,No,,,City,No,Out,0,Intermediate,0
-108.557497943,39.0919652380001,350,S360,Patterson Road west of 26 ¾ Road (by the ATM),No,39.09196524,-108.55749794,711239.71549862,4329822.25575683,RT2,24,:55 - :05,N, , ,Yes,30,No,,,City,No,Out,0,Intermediate,0
-108.5594742,39.0917341420001,351,S359,Patterson Road and 9th Street (St. Mary's Pavilion),Bench/Shelter,39.09173414,-108.5594742,711069.46690513,4329792.00975105,RT2,37,:15 - :25,S, paint faded on shelter, ,Yes,35,No,,,City,No,In,0,Intermediate,180
-108.631616112,39.1062289390001,352,S489,G Road west of Arrowest Road,No,39.10622894,-108.63161611,704787.54562236,4331235.60456762,RT8,32,:25 - :35,S, , ,Yes,55,No,,,City, ,In,0,Intermediate,180
-108.614475808,39.1063649810001,353,S471,G Road across from Community Hospital,Bench/Shelter,39.10636498,-108.61447581,706269.39913188,4331289.51352979,RT8,6,:45 - :55,N, ,Yes,Yes,35,No,,,City,Yes,Out,0,Intermediate,0
-108.650212977,39.1129621870001,354,S499,Highway 6 and 50 at 22 Road (Pilot Travel Center),No,39.11296219,-108.65021298,703159.99506393,4331941.15390829,RT8,31,:25,S, ,No,Yes,70,Yes,1899/12/30 05:25:01+00,1899/12/30 05:25:01+00,City/CDOT,No,In,0,Intermediate,180
-108.505771201,39.082777089,355,S312,29 ½ Road south of Mesa Avenue,No,39.08277709,-108.5057712,715741.88904762,4328924.04053989,RT5,17,:35 - :45,E, ,No,Yes,35,No,,,County,No,In,0,Intermediate,90
-108.723384089,39.158813154,356,S251,Aspen Street east of Sycamore Street,No,39.15881315,-108.72338409,696705.30825808,4336868.99627845,RT8,27,:15 - :25,S, ,No,Yes,30,No,,,Fruita,No,In,0,Intermediate,180
-108.505771201,39.082777089,357,S312,29 ½ Road south of Mesa Avenue,No,39.08277709,-108.5057712,715741.88904762,4328924.04053989,RT10,28,:05 - :15,E, ,No,Yes,35,No,,,County,No,In,0,Intermediate,90
-108.543645911,39.086467052,358,S116,Walnut Avenue west of 19th Street (Walnut Park Apartments),Bench/Private,39.08646705,-108.54364591,712454.36608058,4329244.3090667,RT3,42,:55 - :05,N, ,No,Yes,40,No,,,City,No,In,0,Intermediate,0
-108.598045169,39.095523643,359,S212,F ¼ Road at Goodwill,Bench,39.09552364,-108.59804517,707722.11432176,4330123.66489085,RT7,21,:35 - :45,N, gravel preventing safe ADA accessibility ,No,Yes,30,No,,,City,No,Out,0,Intermediate,0
-108.496692974,39.074782171,360,S446,30 Road north of Gunnison Avenue,No,39.07478217,-108.49669297,716551.68303085,4328058.25473916,RT10,32,:15 - :25,W, ,No,Yes,35,No,,,City, ,In,0,Intermediate,-90
-108.488504597,39.0628846280001,361,S63,D Road west of Wedgewood Avenue,Bench,39.06288463,-108.4885046,717296.628635,4326757.24743362,RT10,20,:55 - :05,N, gravel preventing safe ADA accessibility , ,Yes,45,No,,,County,No,Out,0,Intermediate,0
-108.481277223,39.0628969140001,362,S62,D Road east of Alamo Street,Bench,39.06289691,-108.48127722,717921.99273453,4326775.92265634,RT10,19,:55 - :05,N, gravel preventing safe ADA accessibility , ,Yes,45,No,,,County,No,Out,0,Intermediate,0
-108.498113094,39.062944859,363,S442,D Road west of 30 Road,Bench,39.06294486,-108.49811309,716464.99958396,4326740.99500518,RT10,21,:05,N, ,Yes,Yes,45,Yes,1899/12/30 05:05:01+00,1899/12/30 05:05:01+00,County,No,Out,0,Intermediate,0
-108.504636625,39.0628996230001,364,S443,D Road west of Broken Arrow Drive ,Bench,39.06289962,-108.50463662,715900.64286299,4326720.45107054,RT10,22,:05 - :15,N, ,No,Yes,45,No,,,City,No,Out,0,Intermediate,0
-108.512832162,39.0628516100001,365,S336,D Road east of 29 Road (Maverick),No,39.06285161,-108.51283216,715191.61226036,4326695.67783219,RT10,23,:05 - :15,N, ,No,Yes,45,No,,,City,No,Out,0,Intermediate,0
-108.459378917,39.064850479,366,S257,32 Road north of Candlewood (C & F Food Store),No,39.06485048,-108.45937892,719810.84599981,4327045.51501633,RT10,42,:25 - :35,E, , ,Yes,30,No,,,County,No,In,0,Intermediate,90
-108.459752821,39.0690025640001,367,S247,32 Road south of D ½ Road,No,39.06900256,-108.45975282,719765.60629535,4327505.47099827,RT10,14,:55 - :05,W, , ,Yes,45,No,,,City, ,Out,0,Intermediate,-90
-108.559189208,39.0672191410001,368,S364,Main Street east of 8th Street (Ratekin Towers),Bench,39.06721914,-108.55918921,711167.23494879,4327071.66731145,RT1,8,:15-:25,S, ,No,Yes,30,No,,,City,No,Out,0,Intermediate,180
-108.554102976,39.067221057,369,S368,Main Street East of 11th Street,No,39.06722106,-108.55410298,711607.32102908,4327083.71514317,RT1,9,:15-:25,S, ,No,Yes,30,No,,,City,No,Out,0,Intermediate,180
-108.36932634,39.1056396220001,370,S322,Highway 6 at Palisade High School (Inside Parking Lot),No,39.10563962,-108.36932634,727472.0292571,4331794.74741955,RT4,24,:15 Inbound :55 - :05 Outbound,S,Bus stops Inbound & outbound,Yes,Yes,40,Yes,1899/12/30 05:15:01+00,1899/12/30 05:15:01+00,Private,Yes,In,0,Intermediate,180
-108.452860832,39.0699619810001,371,S266,D ½ Road east of 32 ⅜ Road (Rocky Mountain Elementary),No,39.06996198,-108.45286083,720358.95184022,4327628.65853072,RT10,39,:15 - :25,S, ,No,Yes,30,No,,,County,No,In,0,Intermediate,180
-108.45287267,39.070107545,372,S267,D ½ Road west of Carson Lake Drive,No,39.07010755,-108.45287267,720357.47458288,4327644.78674398,RT10,13,:55 - :05,N, ,No,Yes,45,No,,,County,No,Out,0,Intermediate,0
-108.515450475,39.0438130590001,373,S497,29 Road south of Unaweep Avenue,Bench,39.04381306,-108.51545047,715022.81436733,4324576.31793266,RT6,29,:45 - :55,W, ,No,Yes,45,No,,,City,No,In,0,Intermediate,-90
-108.598654591,39.0901431880001,374,S493,24 ½ Road at Picture Show,Bench/Shelter,39.09014319,-108.59865459,707685.19704508,4329525.07791577,RT11,14,:35 - :45,E,,Yes,Yes,30,No,,,City,No,Out,0,Intermediate,90
-108.625741804,39.106354928,375,S242,G Road east of 23 Road,No,39.10635493,-108.6257418,705295.17488415,4331262.85759944,RT8,7,:45 - :55,N, ,No,Yes,90,No,,,City,No,Out,0,Intermediate,0
-108.625659773,39.1062283470001,376,S243,G Road east of 23 Road,No,39.10622835,-108.62565977,705302.63613384,4331248.99350919,RT8,33,:25 - :35,S, ,No,Yes,45,No,,,City,No,In,0,Intermediate,180
-108.552500616,39.0710408640001,377,S164,12th Street north of Grand Avenue,No,39.07104086,-108.55250062,711734.54555169,4327511.42225384,RT1,44,:45-:55 ,W, ,No,Yes,30,No,,,City,No,In,0,Intermediate,-90
-108.552244495,39.082956724,378,S367,12th Street south of Orchard Avenue,Bench,39.08295672,-108.5522445,711721.06642033,4328834.60278109,RT1,15,:25-:35,E, ,No,yes,30,No,,,city, ,Out,0,Intermediate,90
-108.552259838,39.0793363060001,379,S357,12th Street north of Bunting Street (Colorado Mesa University),No,39.07933631,-108.55225984,711730.56838167,4328432.72377124,RT1,14,:25-:35,E, ,No,yes,30,No,,,city, ,Out,0,Intermediate,90
-108.550443858,39.0917412800001,380,S343,Patterson Road east of 12th Street (City Market),Bench/Private,39.09174128,-108.55044386,711850.53504747,4329813.83297409,RT2,39,:15 - :25,S, ,No,Yes,35,No,,,City,Yes,In,0,Intermediate,180
-108.560907014,39.0660431800001,381,S363,7th Street south of Colorado Avenue (Enstrom's),bench,39.06604318,-108.56090701,711022.10382927,4326937.15205203,RT3,2,:15 - :25,E, dirt and wall preventing safe ADA accessibility , ,Yes,30,No,,,City, ,Out,0,Intermediate,90
-108.561146355,39.0698846560001,382,S430,7th Street south of Grand Avenue ,no,39.06988466,-108.56114636,710989.94889321,4327362.97401091,RT3,48,:55 - :05,W, ,No,Yes,30,No,,,City, ,In,0,Intermediate,-90
-108.560875373,39.0699166470001,383,S428,7th Street north of White Avenue,bench,39.06991665,-108.56087537,711013.29967157,4327367.15429195,RT3,3,:15 - :25,E, , ,Yes,30,No,,,City, ,Out,0,Intermediate,90
-108.561174207,39.0758805890001,384,S432,7th Street south of Belford Avenue ,No,39.07588059,-108.56117421,710969.67305691,4328028.4179709,RT3,46,:55 - :05,W, ,No,Yes,30,No,,,City, ,In,0,Intermediate,-90
-108.560901497,39.0758548530001,385,S433,7th Street north of Teller Avenue,No,39.07585485,-108.5609015,710993.34334308,4328026.19482056,RT3,5,:15 - :25,E, , ,Yes,30,No,,,City, ,Out,0,Intermediate,90
-108.561126685,39.0739514970001,386,S429,7th Street north of Gunnison Avenue,No,39.0739515,-108.56112668,710979.53292288,4327814.41188889,RT3,47,:55 - :05,W, ,No,Yes,30,No,,,City, ,In,0,Intermediate,-90
-108.560912166,39.0739366440001,387,S431,7th Street north of Gunnison Avenue,No,39.07393664,-108.56091217,710998.13688955,4327813.2615745,RT3,4,:15 - :25,E, , ,Yes,30,No,,,City, ,Out,0,Intermediate,90
-108.515285903,39.0815309180001,388,S402,29 Road south of Texas Avenue,NO,39.08153092,-108.5152859,714922.57818189,4328763.16189306,RT5,23,:35 - :45,W, , ,Yes,35,No,,,City, ,In,0,Intermediate,-90
-108.51674266,39.077473465,389,S292,North Avenue west of 29 Road (Big O Tires),Bench,39.07747347,-108.51674266,714808.86778152,4328309.36158829,RT5,24,:35 - :45,N, , , Yes,35,No,,,City, ,In,0,Intermediate,0
-108.521522134,39.0774739770001,390,S127,North Avenue west of 28 ¾ Road (Texas Road House),BENCH,39.07747398,-108.52152213,714395.37455303,4328298.12517983,RT5,25,:45,N, , ,Yes,35,Yes,1899/12/30 05:45:01+00,1899/12/30 05:45:01+00,City, ,In,0,Intermediate,0
-108.527039786,39.0774750030001,391,S121,North Avenue east of 28 ¼ Road (East Gate Shopping Center),BENCH,39.077475,-108.52703979,713918.01739493,4328285.22876136,RT5,26,:45 - :55,N, , ,Yes,30,No,,,City, ,In,0,Intermediate,0
-108.53420082,39.077489627,392,S120,North Avenue west of 28 Road,Bench/Shelter,39.07748963,-108.53420082,713298.44441054,4328270.00991561,RT5,27,:45 - :55,N, , ,Yes,25,No,,,City, ,In,0,Intermediate,0
-108.519142991,39.04122098,393,S406,B ½ Road west of 29 Road,NO,39.04122098,-108.51914299,714711.05940554,4324279.88471464,RT6,30,:45 - :55,N, , ,Yes,45,No,,,City, ,In,0,Intermediate,0
-108.510828138,39.08465528,394,S83,Orchard Avenue west of 29 ¼ Road,NO,39.08465528,-108.51082814,715298.71155068,4329120.50760835,RT6,23,:35 - :45,N, , ,Yes,40,No,,,City, ,Out,0,Intermediate,0
-108.515285903,39.0815309180001,395,S402,29 Road south of Texas Avenue,NO,39.08153092,-108.5152859,714922.57818189,4328763.16189306,RT6,25,:45,W, , ,Yes,45,Yes,1899/12/30 05:45:01+00,1899/12/30 05:45:01+00,City,,In,0,Intermediate,-90
-108.508763284,39.077209856,396,S90,North Avenue west of 29 ½ Road (Career Center),Bench/Shelter,39.07720986,-108.50876328,715499.99911577,4328299.00513485,RT6,20,:35 - :45,S,"just shelter, no bench", ,Yes,25,No,,,City, ,Out,0,Intermediate,180
-108.505688337,39.0789364600001,397,S93,29 1/2 Road at Community Services Campus,Bench/Shelter,39.07893646,-108.50568834,715760.76419434,4328497.94900989,RT6,21,:35 - :45,E, , ,Yes,30,No,,,City,Yes,Out,0,Intermediate,90
-108.505771201,39.082777089,398,S312,29 ½ Road south of Mesa Avenue,NO,39.08277709,-108.5057712,715741.88904762,4328924.04053989,RT6,22,:35 - :45,E, , ,Yes,40,No,,,County, ,Out,0,Intermediate,90
-108.600773838,39.094760991,399,S240,Patterson Road at Home Depot,No,39.09476099,-108.60077384,707488.34589671,4330032.77652471,RT8,2,:45 - :55,NE, , ,Yes,35,No,,,City,No,Out,0,Intermediate,20
-108.606816386,39.09902579,400,S241,F ½ Road east of 24 Road,No,39.09902579,-108.60681639,706953.23915992,4330492.34768637,RT8,36,:25 - :35,S, ,No,Yes,35,No,,,City,No,In,0,Intermediate,180
-108.606449484,39.0969298860001,401,S239,Market Street at City Market,No,39.09692989,-108.60644948,706991.10359312,4330260.55352576,RT8,37,:25 - :35,W, ,No,Yes,35,No,,,City,Yes,In,0,Intermediate,-90
-108.563595124,39.0632116200001,402,S87,Downtown Transfer Facility (6th Street and South Avenue),Bench/Shelter,39.06321162,-108.56359512,710797.93582667,4326616.62780403,RT7,1,:15,0,Transfer Station, ,Yes,30,Yes,1899/12/30 05:15:01+00,1899/12/30 05:15:01+00,City, Yes,Out,1,Transfer,0
-108.545231198,39.0700627410001,403,S373,Grand Avenue east of 17th Street,NO,39.07006274,-108.5452312,712366.44014836,4327419.82644233,RT9,8,:15 - :25,S, , ,Yes,30,No,,,City, ,Out,0,Intermediate,180
-108.514992985,39.0762587510001,404,S34,29 Road south of North Avenue,No,39.07625875,-108.51499299,714963.92780009,4328178.67504454,RT6,18,:35 - :45,E, ,No,Yes,35,No,,,City,No,Out,0,Intermediate,90
-108.551128277,39.0845351670001,405,S101,Orchard Avenue east of 12th Street (True Value),No,39.08453517,-108.55112828,711812.90324934,4329012.4028958,RT3,9,:15 - :25,S,,No,Yes,40,No,,,City,No,Out,0,Intermediate,180
-108.546048548,39.0917056960001,406,S403,Patterson Road east of 15th Street,No,39.0917057,-108.54604855,712230.81944154,4329820.14780955,RT2,40,:15 - :25,S,,No,Yes,35,No,,,City,No,In,0,Intermediate,180
-108.558849039,39.088305887,407,S321,Bookcliff Avenue west of Little Bookcliff Drive (Highlands),No,39.08830589,-108.55884904,711133.76958835,4329412.94868957,RT7,34,:55 - :05,N,,No,Yes,25,No,,,City,No,In,0,Intermediate,0
-108.559077302,39.0881524640001,408,S407,Bookcliff Avenue east of 7th Street (Highlands),No,39.08815246,-108.5590773,711114.48246101,4329395.3889472,RT7,7,:15 - :25,S,,No,Yes,25,No,,,City,No,Out,0,Intermediate,180
-108.5608908,39.0807199320001,409,S156,7th Street north of Kennedy Avenue (Colorado Mesa University),No,39.08071993,-108.5608908,710979.7689788,4328566.21147151,RT3,6,:15 - :25,E,,,Yes,40,No,,,City,Yes,Out,0,Intermediate,90
-108.58501214,39.091815679,410,S105,Patterson Road east of Northgate Drive,No,39.09181568,-108.58501214,708860.29937193,4329742.00495064,RT2,33,:15 - :25,S,,No,Yes,40,No,,,City,No,In,0,Intermediate,180
-108.559823708,39.090093612,411,S282,750 Wellington Avenue (Surgical Center and Dialysis) ,Bench/Shelter,39.09009361,-108.55982371,711044.1287472,4329609.10887893,RT7,9,:25,N, ,Yes,Yes,25,Yes,1899/12/30 05:25:01+00,1899/12/30 05:25:01+00,City,Yes,Out,0,Intermediate,0
-108.562558984,39.089380605,412,S228,St. Marys Hospital (Parking Garage) ,Bench,39.0893806,-108.56255898,710809.65688582,4329523.6158087,RT7,31,:45 - :55,SE,"stop location off in app, needs to be where the pin is",No,Yes,25,No,,,Private,No,In,0,Intermediate,45
-108.561123394,39.08092907,413,S255,7th Street at Elm Avenue,No,39.08092907,-108.56112339,710959.02406315,4328588.88413854,RT3,45,:55 - :05,W,,No,Yes,30,No,,,City,No,In,0,Intermediate,-90
-108.561123394,39.08092907,414,S255,7th Street at Elm Avenue (Grand Junction High School / Science Center),No,39.08092907,-108.56112339,710959.02406315,4328588.88413854,RT7,35,:55 - :05,W,,No,Yes,30,No,,,City,No,In,0,Intermediate,-90
-108.571922058,39.0683928330001,415,S265,Rood Avenue west of 1st Street,No,39.06839283,-108.57192206,710062.03111659,4327172.41927667,RT11,3,:15 - :25,E,,No,Yes,30,No,,,City,No,Out,0,Intermediate,0
-108.515290775,39.063414381,416,S285,29 Road north of D Road (Maverick),No,39.06341438,-108.51529078,714977.15535673,4326752.3213527,RT6,27,:45 - :55,W,,No,Yes,45,No,,,City,No,In,0,Intermediate,-90
-108.514955278,39.063229876,417,S269,29 Road north of D Road (Maverick),No,39.06322988,-108.51495528,715006.7464067,4326732.6363502,RT6,17,:35 - :45,E,,No,Yes,35,No,,,City,No,Out,0,Intermediate,90
-108.515387581,39.076274287,418,S286,29 Road south of North Avenue,No,39.07627429,-108.51538758,714929.74196645,4328179.46557862,RT6,26,:45 - :55,W,,No,Yes,45,No,,,City,No,In,0,Intermediate,-90
-108.5608908,39.0807199320001,419,S156,"7th Street north of Kennedy Avenue (Science Center, Grand Junction High School)",No,39.08071993,-108.5608908,710979.7689788,4328566.21147151,RT7,6,:15 - :25,E,,,Yes,40,No,,,City,Yes,Out,0,Intermediate,90
-108.571030827,39.0841203150001,420,S118,1st Street south of Orchard Avenue (West Middle School),No,39.08412031,-108.57103083,710092.46751309,4328920.1241758,RT7,11,:25 - :35,W,,No,Yes,30,No,,,City,No,Out,0,Intermediate,-90
-108.571066635,39.0658776010001,421,S288,1st Street and Pitkin Avenue (Catholic Outreach),No,39.0658776,-108.57106663,710143.50943257,4326895.22434103,RT11,27,:55 - :05,W, , ,Yes,25,No,,,City, ,In,0,Intermediate,-90
-108.737652431,39.158804305,422,S287,Aspen Avenue east of Coulson Avenue,No,39.15880431,-108.73765243,695472.38091794,4336837.15863167,RT8,21,:05 - :15,S,,No,Yes,25,No,,,Fruita,No,Out,0,Intermediate,180
-108.606807267,39.0991701300001,423,S158,F 1/2 Road west of Market Street,No,39.09917013,-108.60680727,706953.60557113,4330508.38923123,RT8,4,:45 - :55,N,,No,Yes,45,No,,,City,No,Out,0,Intermediate,0
-108.597272494,39.0953939520001,424,S236,F ¼ Road east of Balanced Rock Way,No,39.09539395,-108.59727249,707789.32458774,4330111.03823611,RT7,23,:45 - :55,S, ,No,Yes,30,No,,,City,No,In,0,Intermediate,180
-108.606220598,39.0968869000001,425,S159,Market Street across from City Market,No,39.0968869,-108.6062206,707011.02555302,4330256.30426614,RT8,3,:45 - :55,E,,No,Yes,35,No,,,City,Yes,Out,0,Intermediate,56
-108.608930542,39.106424347,426,S483,G Road west of 24 Road,No,39.10642435,-108.60893054,706748.76614512,4331308.71840996,RT8,5,:45 - :55,N, ,No,Yes,35,No,,,City,No,Out,0,Intermediate,0
-108.608869912,39.106236907,427,S484,G Road west of 24 Road ,No,39.10623691,-108.60886991,706754.55720593,4331288.05203628,RT8,35,:25 - :35,S, ,No,Yes,35,No,,,City,No,In,0,Intermediate,180
-108.593000773,39.091789745,428,S1,Patterson Road east of Commerce Street,No,39.09178974,-108.59300077,708169.39433032,4329720.78105409,RT2,31,:15 - :25,S,,No,Yes,30,No,,,City,No,In,0,Intermediate,180
-108.570999266,39.090340559,429,S167,1st Street south of West Park Drive,No,39.09034056,-108.57099927,710076.73236167,4329610.60318867,RT7,10,:25 - :35,W,,No,Yes,30,No,,,City,No,Out,0,Intermediate,-90
-108.552216717,39.090512964,430,S114,12th Street north of Wellington Avenue,No,39.09051296,-108.55221672,711700.86450677,4329673.36251054,RT1,17,:25-:35,E,,No,Yes,30,No,,,City,No,Out,0,Intermediate,90
-108.552481385,39.0889452330001,431,S366,12th Street north of Bookcliff Avenue,No,39.08894523,-108.55248138,711682.66111793,4329498.73718967,RT1,40,:45-:55 ,W,,No,Yes,30,No,,,City,No,In,0,Intermediate,-90
-108.56830061,39.0775341020001,432,S168,North Avenue west of 3rd Street,No,39.0775341,-108.56830061,710348.21651682,4328195.41828071,RT5,33,:55 - :05,N,,No,Yes,25,No,,,City,No,In,0,Intermediate,0
-108.561889124,39.07751847,433,S112,North Avenue west of 7th Street,No,39.07751847,-108.56188912,710902.94226502,4328208.55153004,RT7,36,:55 - :05,N, , ,Yes,30,No,,,City,No,In,0,Intermediate,0
-108.564065184,39.0772922470001,434,S111,North Avenue east of 5th Street,Bench/Shelter,39.07729225,-108.56406518,710715.3572403,4328178.39161904,RT5,4,:15 - :25,S, ,Yes,Yes,30,No,,,City, ,Out,0,Intermediate,180
-108.568618133,39.0673568170001,435,S176,Main Street east of 1st Street,No,39.06735682,-108.56861813,710350.97875076,4327065.07360444,RT1,51,:55-:05 ,N,,No,Yes,25,No,,,City,No,In,0,Intermediate,0
-108.568606607,39.067229378,436,S178,Main Street west of 3rd Street (Hampton Inn),No,39.06722938,-108.56860661,710352.3546257,4327050.9554062,RT1,3,:15-:25,S,,No,Yes,30,No,,,City,No,Out,0,Intermediate,180
-108.567015647,39.067272648,437,S186,Main Street east of 3rd Street,No,39.06727265,-108.56701565,710489.88532917,4327059.44322799,RT1,4,:15-:25,S,,No,Yes,30,No,,,City,No,Out,0,Intermediate,180
-108.566963965,39.0673671120001,438,S181,Main Street west of 4th Street,No,39.06736711,-108.56696397,710494.07633255,4327070.04781878,RT1,50,:55-:05 ,N,,No,Yes,30,No,,,City,No,In,0,Intermediate,0
-108.56527393,39.067353369,439,S188,Main Street west of 5th Street,No,39.06735337,-108.56527393,710640.3488863,4327072.43965686,RT1,49,:55-:05 ,N,,No,Yes,30,No,,,City,No,In,0,Intermediate,0
-108.565322428,39.0672803890001,440,S187,Main Street east of 4th Street,No,39.06728039,-108.56532243,710636.36956354,4327064.22692614,RT1,5,:15-:25,S,,No,Yes,30,No,,,City,No,Out,0,Intermediate,180
-108.563568598,39.067361212,441,S197,Main Street west of 6th Street,No,39.06736121,-108.5635686,710787.8808335,4327077.26565755,RT1,48,:55-:05 ,N,,No,Yes,30,No,,,City,No,In,0,Intermediate,0
-108.563628772,39.067261778,442,S190,Main Street east of 5th Street,No,39.06726178,-108.56362877,710782.97012921,4327066.08958994,RT1,6,:15-:25,S,,No,Yes,30,No,,,City,No,Out,0,Intermediate,180
-108.561881929,39.0673527530001,443,S245,Main Street west of 7th Street,No,39.06735275,-108.56188193,710933.84645544,4327080.24168455,RT1,47,:55-:05 ,N,,No,Yes,30,No,,,City,No,In,0,Intermediate,0
-108.561936223,39.0672820710001,444,S211,Main Street east of 6th Street,No,39.06728207,-108.56193622,710929.35915174,4327072.27037369,RT1,7,:15-:25,S,,No,Yes,30,No,,,City,No,Out,0,Intermediate,180
-108.571066635,39.0658776010001,445,S288,1st Street and Pitkin Avenue (Catholic Outreach),No,39.0658776,-108.57106663,710143.50943257,4326895.22434103,RT1,52,:55-:05 ,W, , ,Yes,25,No,,,City, ,In,0,Intermediate,-90
-108.57934861,39.0917481340001,446,S388,Patterson Road east of 25 ½ Road,Bench,39.09174813,-108.57934861,709350.36997598,4329747.55081194,RT7,28,:45 - :55,S, , ,Yes,40,No,,,City,No,In,0,Intermediate,180
-108.571685596,39.091717712,447,S379,Patterson Road west of 1st Street,Bench,39.09171771,-108.5716856,710013.27904991,4329761.87040929,RT7,29,:45 - :55,S, ,Yes,Yes,40,No,,,City,No,In,0,Intermediate,180
-108.564538525,39.0917120870001,448,S380,Patterson Road at St. Mary's Hospital (west of entrance) ,Bench,39.09171209,-108.56453853,710631.48855402,4329777.80142347,RT7,30,:45 - :55,S, ,Yes,Yes,35,No,,,City,No,In,0,Intermediate,180
-108.512502697,39.0772091540001,449,S235,North Avenue east of 29 Road,No,39.07720915,-108.5125027,715176.487866,4328290.06128076,RT6,19,:35 - :45,S, ,Yes,Yes,35,No,,,City, ,Out,0,Intermediate,180
-108.566246548,39.066968026,450,S229,4th Street south of Main Street (Wells Fargo Bank),Bench,39.06696803,-108.56624655,710557.33794392,4327027.4144626,RT9,37,:55 - :05,W, , ,Yes,30,No,,,City, ,In,0,Intermediate,-90
-108.564354913,39.067750953,451,S248,5th Street north of Main Street,Bench,39.06775095,-108.56435491,710718.68453497,4327118.70006537,RT9,2,:15 - :25,E, , ,Yes,30,No,,,City, ,Out,0,Intermediate,90
-108.512502697,39.0772091540001,452,S235,North Avenue east of 29 Road,No,39.07720915,-108.5125027,715176.487866,4328290.06128076,RT5,14,:25 - :35,S, ,Yes,Yes,40,No,,,City, ,Out,0,Intermediate,180
-108.56813378,39.065451039,453,S374,Ute Ave west of 3rd Street,No,39.06545104,-108.56813378,710398.54941342,4326854.66704467,RT1,2,:15-:25,N,,No,Yes,30,No,,,City,No,Out,0,Intermediate,0
-108.567122352,39.0643178940001,454,S375,Pitkin Ave east of 3rd Street,No,39.06431789,-108.56712235,710489.43396881,4326731.23864086,RT1,53,:55-:05 ,S,,No,Yes,35,No,,,City,No,In,0,Intermediate,0
-108.56813378,39.065451039,455,S374,Ute Ave west of 3rd Street,No,39.06545104,-108.56813378,710398.54941342,4326854.66704467,RT5,2,:15 - :25,N, ,No,Yes,30,No,,,City,No,Out,0,Intermediate,0
-108.567122352,39.0643178940001,456,S375,Pitkin Ave east of 3rd Street,No,39.06431789,-108.56712235,710489.43396881,4326731.23864086,RT5,36,:55 - :05,S, ,No,Yes,35,No,,,City,No,In,0,Intermediate,0
-108.56813378,39.065451039,457,S374,Ute Ave west of 3rd Street,No,39.06545104,-108.56813378,710398.54941342,4326854.66704467,RT11,2,:15 - :25,N, ,No,Yes,30,No,,,City,No,Out,0,Intermediate,0
-108.567122352,39.0643178940001,458,S375,Pitkin Ave east of 3rd Street,No,39.06431789,-108.56712235,710489.43396881,4326731.23864086,RT11,28,:55 - :05,S, ,No,Yes,35,No,,,City,No,In,0,Intermediate,0
-108.534452542,39.0846941890001,459,S128,Orchard Ave east of 26th Street (Rocket Park),No,39.08469419,-108.53445254,713254.96009178,4329069.0813622,RT3,40,:55 - :05,N,,No,Yes,40,No,,,City,No,In,0,Intermediate,0
-108.535164843,39.084511048,460,S132,Orchard Ave west of 26th Street (Rocket Park),No,39.08451105,-108.53516484,713193.89410208,4329047.08125615,RT3,12,:25 - :35,S,,No,Yes,40,No,,,City,No,Out,0,Intermediate,0
-108.552493626,39.0439007530001,461,S294,27 Road south of B 3/4 Road (Orchard Mesa Maverick) ,No,39.04390075,-108.55249363,711816.28090726,4324499.0698065,RT6,40,:55 - :05,W,,No,Yes,25,No,,,City,No,In,0,Intermediate,90
-108.5710749,39.0681487190001,462,S513,1st Street south of Rood,Bench/Shelter,39.06814872,-108.5710749,710136.05534653,4327147.28359641,RT5,34,:55 - :05,,,Yes,Yes,25,No,,,City/CDOT,No,In,0,Intermediate,-90
-108.5710749,39.0681487190001,463,S513,1st Street south of Rood,Bench/Shelter,39.06814872,-108.5710749,710136.05534653,4327147.28359641,RT11,26,:55 - :05,,,Yes,Yes,25,No,,,City,No,In,0,Intermediate,-90
-108.579414174,39.0748990050001,464,S514,American Way east of Base Rock Street,No,39.07489901,-108.57941417,709394.53947191,4327877.26127681,RT11,9,:25 - :35,N,,,Yes,25,No,,,City,No,Out,0,Intermediate,
-108.579424,39.074723405,465,S515,American Way east of Base Rock Street,No,39.0747234,-108.579424,709394.2087777,4327857.74816772,RT11,22,:55 - :05,S,,,Yes,25,No,,,City,No,In,0,Intermediate,
-108.514253586,39.084690505,466,S85,Orchard Avenue east of 29 Road,Bench,39.0846905,-108.51425359,715002.28491346,4329116.30153641,RT6,24,:35 - :45,N,Mesa County owns the bench: basic concrete without a pad or back rest, ,Yes,35,No,,,City, ,In,0,Intermediate,0
-108.459570557,39.064573076,467,S516,32 Road south of Candlewood,No,39.06457308,-108.45957056,719795.12423739,4327014.26098664,RT10,15,:55 - :05,SE,,No,Yes,45,No,,,County,No,Out,0,Intermedaiate,90
