{
"type": "FeatureCollection",
"name": "schools",
"crs": { "type": "name", "properties": { "name": "urn:ogc:def:crs:OGC:1.3:CRS84" } },
"features": [
{ "type": "Feature", "properties": { "OBJECTID": 1, "MARKERDESC": "school", "SYMBOL": 0, "ANNOTATION": 0, "NAME": "De Beque School", "STREET_NO": 730.0, "DIRECTION": " ", "STREET": "Minter", "STREET_TYP": "Ave", "PHONE": "(970) 283-5596", "PUB_PRI": "pub", "CODE": "K-12", "CODE2": "K-12", "PUB_PRI2": "Public", "MapBookScale": 1200, "Book_Jurisdiction": "MCSO", "ADDRESS": "730 Minter Ave, De Beque, 81630", "MAP_ROTATION": -1.0, "MapBookPage": 15, "PAGE": "Page: 15" }, "geometry": { "type": "Point", "coordinates": [ -108.212859751999986, 39.33690822300008 ] } },
{ "type": "Feature", "properties": { "OBJECTID": 2, "MARKERDESC": "school", "SYMBOL": 0, "ANNOTATION": 0, "NAME": "Gateway School", "STREET_NO": 42575.0, "DIRECTION": " ", "STREET": "HWY 141", "STREET_TYP": " ", "PHONE": "(970) 931-2276", "PUB_PRI": "pub", "CODE": "K-12", "CODE2": "K-12", "PUB_PRI2": "Public", "MapBookScale": 720, "Book_Jurisdiction": "MCSO", "ADDRESS": "42575 HWY 141, Gateway, 81522", "MAP_ROTATION": -1.0, "MapBookPage": 23, "PAGE": "Page: 23" }, "geometry": { "type": "Point", "coordinates": [ -108.971635688999982, 38.682617592000042 ] } },
{ "type": "Feature", "properties": { "OBJECTID": 3, "MARKERDESC": "school", "SYMBOL": 0, "ANNOTATION": 0, "NAME": "Taylor Elementary School", "STREET_NO": 689.0, "DIRECTION": " ", "STREET": "Brentwood", "STREET_TYP": "Dr", "PHONE": "(970) 254-4870", "PUB_PRI": "pub", "CODE": "ELEM", "CODE2": "Elementary", "PUB_PRI2": "Public", "MapBookScale": 960, "Book_Jurisdiction": "MCSO", "ADDRESS": "689 Brentwood Dr, Palisade, 81526", "MAP_ROTATION": -1.0, "MapBookPage": 55, "PAGE": "Page: 55" }, "geometry": { "type": "Point", "coordinates": [ -108.353328818999955, 39.104368929000032 ] } },
{ "type": "Feature", "properties": { "OBJECTID": 5, "MARKERDESC": "school", "SYMBOL": 0, "ANNOTATION": 0, "NAME": "Palisade High School", "STREET_NO": 3679.0, "DIRECTION": " ", "STREET": "G", "STREET_TYP": "Rd", "PHONE": "(970) 464-4800", "PUB_PRI": "pub", "CODE": "HIGH", "CODE2": "High", "PUB_PRI2": "Public", "MapBookScale": 1200, "Book_Jurisdiction": "MCSO", "ADDRESS": "3679 G Rd, Palisade, 81526", "MAP_ROTATION": -1.0, "MapBookPage": 44, "PAGE": "Page: 44" }, "geometry": { "type": "Point", "coordinates": [ -108.369786794999982, 39.105011345000037 ] } },
{ "type": "Feature", "properties": { "OBJECTID": 6, "MARKERDESC": "school", "SYMBOL": 0, "ANNOTATION": 0, "NAME": "Mount Garfield Middle School", "STREET_NO": 3475.0, "DIRECTION": " ", "STREET": "Front", "STREET_TYP": "St", "PHONE": "(970) 254-4720", "PUB_PRI": "pub", "CODE": "MIDD", "CODE2": "Middle", "PUB_PRI2": "Public", "MapBookScale": 1200, "Book_Jurisdiction": "MCSO", "ADDRESS": "3475 Front St, Clifton, 81520", "MAP_ROTATION": -1.0, "MapBookPage": 39, "PAGE": "Page: 39" }, "geometry": { "type": "Point", "coordinates": [ -108.408503422999956, 39.096573632000059 ] } },
{ "type": "Feature", "properties": { "OBJECTID": 7, "MARKERDESC": "school", "SYMBOL": 20, "ANNOTATION": 21, "NAME": "Clifton Elementary School", "STREET_NO": 3276.0, "DIRECTION": " ", "STREET": "F", "STREET_TYP": "Rd", "PHONE": "(970) 254-4760", "PUB_PRI": "pub", "CODE": "ELEM", "CODE2": "Elementary", "PUB_PRI2": "Public", "MapBookScale": 1200, "Book_Jurisdiction": "MCSO", "ADDRESS": "3276 F Rd, Clifton, 81520", "MAP_ROTATION": -1.0, "MapBookPage": 13, "PAGE": "Page: 13" }, "geometry": { "type": "Point", "coordinates": [ -108.445324647999939, 39.092921671000056 ] } },
{ "type": "Feature", "properties": { "OBJECTID": 8, "MARKERDESC": "school", "SYMBOL": 20, "ANNOTATION": 22, "NAME": "Chatfield Elementary School", "STREET_NO": 3188.0, "DIRECTION": " ", "STREET": "D 1/2", "STREET_TYP": "Rd", "PHONE": "(970) 254-4930", "PUB_PRI": "pub", "CODE": "ELEM", "CODE2": "Elementary", "PUB_PRI2": "Public", "MapBookScale": 1200, "Book_Jurisdiction": "MCSO", "ADDRESS": "3188 D 1/2 Rd, Grand Junction 81504", "MAP_ROTATION": -1.0, "MapBookPage": 11, "PAGE": "Page: 11" }, "geometry": { "type": "Point", "coordinates": [ -108.461524976999954, 39.071202724000045 ] } },
{ "type": "Feature", "properties": { "OBJECTID": 9, "MARKERDESC": "school", "SYMBOL": 0, "ANNOTATION": 0, "NAME": "Pear Park Baptist School", "STREET_NO": 3102.0, "DIRECTION": " ", "STREET": "E", "STREET_TYP": "Rd", "PHONE": "(970) 434-4113", "PUB_PRI": "pri", "CODE": "RELG", "CODE2": "Religious", "PUB_PRI2": "Private", "MapBookScale": 720, "Book_Jurisdiction": "MCSO", "ADDRESS": "3102 E Rd, Grand Junction 81504", "MAP_ROTATION": -1.0, "MapBookPage": 45, "PAGE": "Page: 45" }, "geometry": { "type": "Point", "coordinates": [ -108.477074414999947, 39.077843752000035 ] } },
{ "type": "Feature", "properties": { "OBJECTID": 10, "MARKERDESC": "school", "SYMBOL": 20, "ANNOTATION": 20, "NAME": "Central High School", "STREET_NO": 550.0, "DIRECTION": " ", "STREET": "Warrior", "STREET_TYP": "Way", "PHONE": "(970) 254-6200", "PUB_PRI": "pub", "CODE": "HIGH", "CODE2": "High", "PUB_PRI2": "Public", "MapBookScale": 1200, "Book_Jurisdiction": "MCSO", "ADDRESS": "550 Warrior Way, Grand Junction 81504", "MAP_ROTATION": -1.0, "MapBookPage": 10, "PAGE": "Page: 10" }, "geometry": { "type": "Point", "coordinates": [ -108.472301530999971, 39.086913002000074 ] } },
{ "type": "Feature", "properties": { "OBJECTID": 11, "MARKERDESC": "school", "SYMBOL": 20, "ANNOTATION": 19, "NAME": "Thunder Mountain Elementary School", "STREET_NO": 3063.0, "DIRECTION": " ", "STREET": "F", "STREET_TYP": "Rd", "PHONE": "(970) 254-5870", "PUB_PRI": "pub", "CODE": "ELEM", "CODE2": "Elementary", "PUB_PRI2": "Public", "MapBookScale": 960, "Book_Jurisdiction": "MCSO", "ADDRESS": "3063 F Rd, Grand Junction 81504", "MAP_ROTATION": -1.0, "MapBookPage": 56, "PAGE": "Page: 56" }, "geometry": { "type": "Point", "coordinates": [ -108.484002533999956, 39.09812942800005 ] } },
{ "type": "Feature", "properties": { "OBJECTID": 12, "MARKERDESC": "school", "SYMBOL": 20, "ANNOTATION": 18, "NAME": "Fruitvale Elementary School", "STREET_NO": 585.0, "DIRECTION": " ", "STREET": "30", "STREET_TYP": "Rd", "PHONE": "(970) 254-5930", "PUB_PRI": "pub", "CODE": "ELEM", "CODE2": "Elementary", "PUB_PRI2": "Public", "MapBookScale": 1200, "Book_Jurisdiction": "MCSO", "ADDRESS": "585 30 Rd, Grand Junction 81504", "MAP_ROTATION": -1.0, "MapBookPage": 22, "PAGE": "Page: 22" }, "geometry": { "type": "Point", "coordinates": [ -108.49736994899996, 39.089316568000072 ] } },
{ "type": "Feature", "properties": { "OBJECTID": 13, "MARKERDESC": "school", "SYMBOL": 0, "ANNOTATION": 0, "NAME": "Genesis Christian School", "STREET_NO": 615.0, "DIRECTION": " ", "STREET": "I-70 Business", "STREET_TYP": "Lp", "PHONE": "(970) 434-0205", "PUB_PRI": "pri", "CODE": "RELG", "CODE2": "Religious", "PUB_PRI2": "Private", "MapBookScale": 1200, "Book_Jurisdiction": "MCSO", "ADDRESS": "615 I-70 Business Loop, Clifton, 81520", "MAP_ROTATION": -1.0, "MapBookPage": 24, "PAGE": "Page: 24" }, "geometry": { "type": "Point", "coordinates": [ -108.451735529999951, 39.094422680000037 ] } },
{ "type": "Feature", "properties": { "OBJECTID": 14, "MARKERDESC": "school", "SYMBOL": 0, "ANNOTATION": 0, "NAME": "Career Center", "STREET_NO": 2935.0, "DIRECTION": " ", "STREET": "North", "STREET_TYP": "Ave", "PHONE": "(970) 254-6000", "PUB_PRI": "pub", "CODE": "VOCT", "CODE2": "Vocational", "PUB_PRI2": "Public", "MapBookScale": 900, "Book_Jurisdiction": "GJ", "ADDRESS": "2935 North Ave, Grand Junction 81504", "MAP_ROTATION": 89.0, "MapBookPage": 9, "PAGE": "Page: 9" }, "geometry": { "type": "Point", "coordinates": [ -108.508688829, 39.075919130000045 ] } },
{ "type": "Feature", "properties": { "OBJECTID": 15, "MARKERDESC": "school", "SYMBOL": 20, "ANNOTATION": 17, "NAME": "Bookcliff Middle School", "STREET_NO": 540.0, "DIRECTION": " ", "STREET": "29 1/4", "STREET_TYP": "Rd", "PHONE": "(970) 254-6220", "PUB_PRI": "pub", "CODE": "MIDD", "CODE2": "Middle", "PUB_PRI2": "Public", "MapBookScale": 1200, "Book_Jurisdiction": "GJ", "ADDRESS": "540 29 1/4 Rd, Grand Junction 81504", "MAP_ROTATION": 89.0, "MapBookPage": 6, "PAGE": "Page: 6" }, "geometry": { "type": "Point", "coordinates": [ -108.509356913999966, 39.082653089000075 ] } },
{ "type": "Feature", "properties": { "OBJECTID": 16, "MARKERDESC": "school", "SYMBOL": 20, "ANNOTATION": 18, "NAME": "Nisley Elementary School", "STREET_NO": 543.0, "DIRECTION": " ", "STREET": "28 3/4", "STREET_TYP": "Rd", "PHONE": "(970) 254-5900", "PUB_PRI": "pub", "CODE": "ELEM", "CODE2": "Elementary", "PUB_PRI2": "Public", "MapBookScale": 1200, "Book_Jurisdiction": "GJ", "ADDRESS": "543 28 3/4 Rd, Grand Junction, 81501", "MAP_ROTATION": -1.0, "MapBookPage": 41, "PAGE": "Page: 41" }, "geometry": { "type": "Point", "coordinates": [ -108.52091936, 39.082985217000044 ] } },
{ "type": "Feature", "properties": { "OBJECTID": 18, "MARKERDESC": "school", "SYMBOL": 0, "ANNOTATION": 0, "NAME": "Bookcliff Christian School", "STREET_NO": 2702.0, "DIRECTION": " ", "STREET": "Patterson", "STREET_TYP": "Rd", "PHONE": "(970) 243-2999", "PUB_PRI": "pri", "CODE": "ELEM", "CODE2": "Elementary", "PUB_PRI2": "Private", "MapBookScale": 720, "Book_Jurisdiction": "GJ", "ADDRESS": "2702 Patterson Rd, Grand Junction, 81506", "MAP_ROTATION": -1.0, "MapBookPage": 5, "PAGE": "Page: 5" }, "geometry": { "type": "Point", "coordinates": [ -108.551796425999953, 39.092440597000063 ] } },
{ "type": "Feature", "properties": { "OBJECTID": 19, "MARKERDESC": "school", "SYMBOL": 20, "ANNOTATION": 14, "NAME": "Orchard Avenue Elementary School", "STREET_NO": 1800.0, "DIRECTION": " ", "STREET": "Orchard", "STREET_TYP": "Ave", "PHONE": "(970) 254-7560", "PUB_PRI": "pub", "CODE": "ELEM", "CODE2": "Elementary", "PUB_PRI2": "Public", "MapBookScale": 960, "Book_Jurisdiction": "GJ", "ADDRESS": "1800 Orchard Ave, Grand Junction, 81501", "MAP_ROTATION": -1.0, "MapBookPage": 42, "PAGE": "Page: 42" }, "geometry": { "type": "Point", "coordinates": [ -108.544155005999983, 39.085250877000078 ] } },
{ "type": "Feature", "properties": { "OBJECTID": 20, "MARKERDESC": "school", "SYMBOL": 0, "ANNOTATION": 0, "NAME": "Colorado Mesa University", "STREET_NO": 1200.0, "DIRECTION": " ", "STREET": "North", "STREET_TYP": "Ave", "PHONE": "(970) 248-1020", "PUB_PRI": "pub", "CODE": "COLL", "CODE2": "College", "PUB_PRI2": "Public", "MapBookScale": 2400, "Book_Jurisdiction": "GJ", "ADDRESS": "1200 North Ave, Grand Junction, 81501", "MAP_ROTATION": 89.0, "MapBookPage": 14, "PAGE": "Page: 14" }, "geometry": { "type": "Point", "coordinates": [ -108.554641212999968, 39.080697245000067 ] } },
{ "type": "Feature", "properties": { "OBJECTID": 21, "MARKERDESC": "school", "SYMBOL": 0, "ANNOTATION": 0, "NAME": "Messiah Lutheran Church K-8th School", "STREET_NO": 840.0, "DIRECTION": "N", "STREET": "11th", "STREET_TYP": "St", "PHONE": "(970) 245-2838", "PUB_PRI": "pri", "CODE": "ELEM", "CODE2": "Elementary", "PUB_PRI2": "Private", "MapBookScale": 720, "Book_Jurisdiction": "GJ", "ADDRESS": "840 N 11th St, Grand Junction, 81501", "MAP_ROTATION": -1.0, "MapBookPage": 38, "PAGE": "Page: 38" }, "geometry": { "type": "Point", "coordinates": [ -108.553437972999973, 39.075124022000068 ] } },
{ "type": "Feature", "properties": { "OBJECTID": 24, "MARKERDESC": "school", "SYMBOL": 20, "ANNOTATION": 13, "NAME": "Chipeta Elementary School", "STREET_NO": 950.0, "DIRECTION": "", "STREET": "Chipeta", "STREET_TYP": "Ave", "PHONE": "(970) 254-6825", "PUB_PRI": "pub", "CODE": "ELEM", "CODE2": "Elementary", "PUB_PRI2": "Public", "MapBookScale": 720, "Book_Jurisdiction": "GJ", "ADDRESS": "950 Chipeta Ave, Grand Junction, 81501", "MAP_ROTATION": -1.0, "MapBookPage": 12, "PAGE": "Page: 12" }, "geometry": { "type": "Point", "coordinates": [ -108.556729733999987, 39.072771059000047 ] } },
{ "type": "Feature", "properties": { "OBJECTID": 25, "MARKERDESC": "school", "SYMBOL": 0, "ANNOTATION": 0, "NAME": "R-5 High School", "STREET_NO": 455.0, "DIRECTION": "N", "STREET": "22nd", "STREET_TYP": "St", "PHONE": "(970) 254-6880", "PUB_PRI": "pub", "CODE": "HIGH", "CODE2": "High", "PUB_PRI2": "Public", "MapBookScale": 960, "Book_Jurisdiction": "GJ", "ADDRESS": "455 N 22nd St, Grand Junction, 81501", "MAP_ROTATION": -1.0, "MapBookPage": 49, "PAGE": "Page: 49" }, "geometry": { "type": "Point", "coordinates": [ -108.540711948999956, 39.071068400000058 ] } },
{ "type": "Feature", "properties": { "OBJECTID": 27, "MARKERDESC": "school", "SYMBOL": 20, "ANNOTATION": 11, "NAME": "Tope Elementary School", "STREET_NO": 2220.0, "DIRECTION": "N", "STREET": "7th", "STREET_TYP": "St", "PHONE": "(970) 254-7070", "PUB_PRI": "pub", "CODE": "ELEM", "CODE2": "Elementary", "PUB_PRI2": "Public", "MapBookScale": 960, "Book_Jurisdiction": "GJ", "ADDRESS": "2220 N 7th St, Grand Junction, 81501", "MAP_ROTATION": -1.0, "MapBookPage": 57, "PAGE": "Page: 57" }, "geometry": { "type": "Point", "coordinates": [ -108.559219102999975, 39.087013610000042 ] } },
{ "type": "Feature", "properties": { "OBJECTID": 28, "MARKERDESC": "school", "SYMBOL": 0, "ANNOTATION": 0, "NAME": "Holy Family School", "STREET_NO": 790.0, "DIRECTION": " ", "STREET": "26 1/2", "STREET_TYP": "Rd", "PHONE": "(970) 242-6168", "PUB_PRI": "pri", "CODE": "ELEM", "CODE2": "Elementary", "PUB_PRI2": "Private", "MapBookScale": 1200, "Book_Jurisdiction": "GJ", "ADDRESS": "790 26 1/2 Rd, Grand Junction, 81506", "MAP_ROTATION": -1.0, "MapBookPage": 29, "PAGE": "Page: 29" }, "geometry": { "type": "Point", "coordinates": [ -108.559696776999942, 39.11956890700003 ] } },
{ "type": "Feature", "properties": { "OBJECTID": 29, "MARKERDESC": "school", "SYMBOL": 0, "ANNOTATION": 0, "NAME": "Happy Kingdom Preschool", "STREET_NO": 641.0, "DIRECTION": " ", "STREET": "Horizon", "STREET_TYP": "Dr", "PHONE": "(970) 243-9336", "PUB_PRI": "pri", "CODE": "RELG", "CODE2": "Religious", "PUB_PRI2": "Private", "MapBookScale": 960, "Book_Jurisdiction": "GJ", "ADDRESS": "641 Horizon Dr, Grand Junction, 81506", "MAP_ROTATION": -1.0, "MapBookPage": 28, "PAGE": "Page: 28" }, "geometry": { "type": "Point", "coordinates": [ -108.559280850999983, 39.097561540000072 ] } },
{ "type": "Feature", "properties": { "OBJECTID": 30, "MARKERDESC": "school", "SYMBOL": 20, "ANNOTATION": 8, "NAME": "Pomona Elementary School", "STREET_NO": 588.0, "DIRECTION": " ", "STREET": "25 1/2", "STREET_TYP": "Rd", "PHONE": "(970) 254-4990", "PUB_PRI": "pub", "CODE": "ELEM", "CODE2": "Elementary", "PUB_PRI2": "Public", "MapBookScale": 1200, "Book_Jurisdiction": "GJ", "ADDRESS": "588 25 1/2 Rd, Grand Junction, 81505", "MAP_ROTATION": 89.0, "MapBookPage": 48, "PAGE": "Page: 48" }, "geometry": { "type": "Point", "coordinates": [ -108.579033021999976, 39.090278083000044 ] } },
{ "type": "Feature", "properties": { "OBJECTID": 31, "MARKERDESC": "school", "SYMBOL": 20, "ANNOTATION": 9, "NAME": "West Middle School", "STREET_NO": 123.0, "DIRECTION": "W", "STREET": "Orchard", "STREET_TYP": "Ave", "PHONE": "(970) 254-5090", "PUB_PRI": "pub", "CODE": "MIDD", "CODE2": "Middle", "PUB_PRI2": "Public", "MapBookScale": 1200, "Book_Jurisdiction": "GJ", "ADDRESS": "123 W Orchard Ave, Grand Junction, 81505", "MAP_ROTATION": -1.0, "MapBookPage": 58, "PAGE": "Page: 58" }, "geometry": { "type": "Point", "coordinates": [ -108.571872879999944, 39.083939505000046 ] } },
{ "type": "Feature", "properties": { "OBJECTID": 32, "MARKERDESC": "school", "SYMBOL": 20, "ANNOTATION": 23, "NAME": "Mesa View Elementary School", "STREET_NO": 2967.0, "DIRECTION": " ", "STREET": "B", "STREET_TYP": "Rd", "PHONE": "(970) 254-7970", "PUB_PRI": "pub", "CODE": "ELEM", "CODE2": "Elementary", "PUB_PRI2": "Public", "MapBookScale": 1200, "Book_Jurisdiction": "GJ", "ADDRESS": "2967 B Rd, Grand Junction, 81503", "MAP_ROTATION": -1.0, "MapBookPage": 37, "PAGE": "Page: 37" }, "geometry": { "type": "Point", "coordinates": [ -108.502279544999965, 39.033307594000064 ] } },
{ "type": "Feature", "properties": { "OBJECTID": 33, "MARKERDESC": "school", "SYMBOL": 20, "ANNOTATION": 7, "NAME": "Lincoln Orchard Mesa Elementary School", "STREET_NO": 2888.0, "DIRECTION": " ", "STREET": "B 1/2", "STREET_TYP": "Rd", "PHONE": "(970) 254-7940", "PUB_PRI": "pub", "CODE": "ELEM", "CODE2": "Elementary", "PUB_PRI2": "Public", "MapBookScale": 960, "Book_Jurisdiction": "MCSO", "ADDRESS": "2888 B 1/2 Rd, Grand Junction, 81503", "MAP_ROTATION": -1.0, "MapBookPage": 34, "PAGE": "Page: 34" }, "geometry": { "type": "Point", "coordinates": [ -108.51797374299997, 39.042021040000066 ] } },
{ "type": "Feature", "properties": { "OBJECTID": 34, "MARKERDESC": "school", "SYMBOL": 20, "ANNOTATION": 6, "NAME": "Orchard Mesa Middle School", "STREET_NO": 2736.0, "DIRECTION": " ", "STREET": "C", "STREET_TYP": "Rd", "PHONE": "(970) 254-6320", "PUB_PRI": "pub", "CODE": "MIDD", "CODE2": "Middle", "PUB_PRI2": "Public", "MapBookScale": 1200, "Book_Jurisdiction": "GJ", "ADDRESS": "2736 C Rd, Grand Junction, 81503", "MAP_ROTATION": -1.0, "MapBookPage": 43, "PAGE": "Page: 43" }, "geometry": { "type": "Point", "coordinates": [ -108.54661813499996, 39.049420269000052 ] } },
{ "type": "Feature", "properties": { "OBJECTID": 35, "MARKERDESC": "school", "SYMBOL": 20, "ANNOTATION": 5, "NAME": "New Emerson Elementary School", "STREET_NO": 2660.0, "DIRECTION": " ", "STREET": "Unaweep", "STREET_TYP": "Ave", "PHONE": "(970) 254-6500", "PUB_PRI": "pub", "CODE": "ELEM", "CODE2": "Elementary", "PUB_PRI2": "Public", "MapBookScale": 960, "Book_Jurisdiction": "GJ", "ADDRESS": "2660 Unaweep Ave, Grand Junction, 81503", "MAP_ROTATION": -1.0, "MapBookPage": 40, "PAGE": "Page: 40" }, "geometry": { "type": "Point", "coordinates": [ -108.557866041999944, 39.049104601000067 ] } },
{ "type": "Feature", "properties": { "OBJECTID": 37, "MARKERDESC": "school", "SYMBOL": 20, "ANNOTATION": 4, "NAME": "Wingate Elementary School", "STREET_NO": 334.0, "DIRECTION": "", "STREET": "South Camp", "STREET_TYP": "Rd", "PHONE": "(970) 254-4960", "PUB_PRI": "pub", "CODE": "ELEM", "CODE2": "Elementary", "PUB_PRI2": "Public", "MapBookScale": 1200, "Book_Jurisdiction": "GJ", "ADDRESS": "334 South Camp Rd, Grand Junction, 81507", "MAP_ROTATION": -1.0, "MapBookPage": 59, "PAGE": "Page: 59" }, "geometry": { "type": "Point", "coordinates": [ -108.646069634999947, 39.056960142000037 ] } },
{ "type": "Feature", "properties": { "OBJECTID": 38, "MARKERDESC": "school", "SYMBOL": 20, "ANNOTATION": 1, "NAME": "Redlands Middle School", "STREET_NO": 2200.0, "DIRECTION": " ", "STREET": "Broadway", "STREET_TYP": " ", "PHONE": "(970) 254-7000", "PUB_PRI": "pub", "CODE": "MIDD", "CODE2": "Middle", "PUB_PRI2": "Public", "MapBookScale": 1200, "Book_Jurisdiction": "MCSO", "ADDRESS": "2200 Broadway, Grand Junction, 81507", "MAP_ROTATION": -1.0, "MapBookPage": 50, "PAGE": "Page: 50" }, "geometry": { "type": "Point", "coordinates": [ -108.643989869999984, 39.084509344000026 ] } },
{ "type": "Feature", "properties": { "OBJECTID": 39, "MARKERDESC": "school", "SYMBOL": 20, "ANNOTATION": 23, "NAME": "Broadway Elementary School", "STREET_NO": 2248.0, "DIRECTION": " ", "STREET": "Broadway", "STREET_TYP": " ", "PHONE": "(970) 254-6292", "PUB_PRI": "pub", "CODE": "ELEM", "CODE2": "Elementary", "PUB_PRI2": "Public", "MapBookScale": 1200, "Book_Jurisdiction": "MCSO", "ADDRESS": "2248 Broadway, Grand Junction, 81507", "MAP_ROTATION": -1.0, "MapBookPage": 7, "PAGE": "Page: 7" }, "geometry": { "type": "Point", "coordinates": [ -108.636590812999941, 39.080973873000062 ] } },
{ "type": "Feature", "properties": { "OBJECTID": 40, "MARKERDESC": "school", "SYMBOL": 0, "ANNOTATION": 0, "NAME": "Appleton Elementary School", "STREET_NO": 2358.0, "DIRECTION": " ", "STREET": "H", "STREET_TYP": "Rd", "PHONE": "(970) 254-6400", "PUB_PRI": "pub", "CODE": "ELEM", "CODE2": "Elementary", "PUB_PRI2": "Public", "MapBookScale": 960, "Book_Jurisdiction": "MCSO", "ADDRESS": "2358 H Rd, Grand Junction, 81505", "MAP_ROTATION": -1.0, "MapBookPage": 4, "PAGE": "Page: 4" }, "geometry": { "type": "Point", "coordinates": [ -108.615637247999985, 39.121657363000054 ] } },
{ "type": "Feature", "properties": { "OBJECTID": 41, "MARKERDESC": "school", "SYMBOL": 0, "ANNOTATION": 0, "NAME": "Fruita Monument High School", "STREET_NO": 1102.0, "DIRECTION": " ", "STREET": "Wildcat", "STREET_TYP": "Ave", "PHONE": "(970) 858-6600", "PUB_PRI": "pub", "CODE": "HIGH", "CODE2": "High", "PUB_PRI2": "Public", "MapBookScale": 1200, "Book_Jurisdiction": "MCSO", "ADDRESS": "1102 Wildcat Ave, Fruita, 81521", "MAP_ROTATION": -1.0, "MapBookPage": 21, "PAGE": "Page: 21" }, "geometry": { "type": "Point", "coordinates": [ -108.716995237999981, 39.14877793200003 ] } },
{ "type": "Feature", "properties": { "OBJECTID": 42, "MARKERDESC": "school", "SYMBOL": 0, "ANNOTATION": 0, "NAME": "Fruita Middle School", "STREET_NO": 239.0, "DIRECTION": "N", "STREET": "Maple", "STREET_TYP": "St", "PHONE": "(970) 254-6570", "PUB_PRI": "pub", "CODE": "MIDD", "CODE2": "Middle", "PUB_PRI2": "Public", "MapBookScale": 1200, "Book_Jurisdiction": "MCSO", "ADDRESS": "239 N Maple St, Fruita, 81521", "MAP_ROTATION": 89.0, "MapBookPage": 20, "PAGE": "Page: 20" }, "geometry": { "type": "Point", "coordinates": [ -108.729794987, 39.16253252100006 ] } },
{ "type": "Feature", "properties": { "OBJECTID": 43, "MARKERDESC": "school", "SYMBOL": 0, "ANNOTATION": 0, "NAME": "Shelledy Elementary School", "STREET_NO": 363.0, "DIRECTION": "N", "STREET": "Mesa", "STREET_TYP": "St", "PHONE": "(970) 254-6460", "PUB_PRI": "pub", "CODE": "ELEM", "CODE2": "Elementary", "PUB_PRI2": "Public", "MapBookScale": 960, "Book_Jurisdiction": "MCSO", "ADDRESS": "363 N Mesa St, Fruita, 81521", "MAP_ROTATION": -1.0, "MapBookPage": 54, "PAGE": "Page: 54" }, "geometry": { "type": "Point", "coordinates": [ -108.734270526999978, 39.163436423000064 ] } },
{ "type": "Feature", "properties": { "OBJECTID": 44, "MARKERDESC": "school", "SYMBOL": 20, "ANNOTATION": 10, "NAME": "Grand Junction High School", "STREET_NO": 1400.0, "DIRECTION": "N", "STREET": "5th", "STREET_TYP": "St", "PHONE": "(970) 254-6900", "PUB_PRI": "pub", "CODE": "HIGH", "CODE2": "High", "PUB_PRI2": "Public", "MapBookScale": 1200, "Book_Jurisdiction": "GJ", "ADDRESS": "1400 N 5th St, Grand Junction, 81501", "MAP_ROTATION": 89.0, "MapBookPage": 25, "PAGE": "Page: 25" }, "geometry": { "type": "Point", "coordinates": [ -108.563032887999952, 39.080501764000076 ] } },
{ "type": "Feature", "properties": { "OBJECTID": 45, "MARKERDESC": "school", "SYMBOL": 0, "ANNOTATION": 0, "NAME": "7th Day Advent Elementary School", "STREET_NO": 1704.0, "DIRECTION": "N", "STREET": "8th", "STREET_TYP": "St", "PHONE": "(970) 242-7603", "PUB_PRI": "pri", "CODE": "ELEM", "CODE2": "Elementary", "PUB_PRI2": "Private", "MapBookScale": 720, "Book_Jurisdiction": "GJ", "ADDRESS": "1704 N 8th St, Grand Junction, 81501", "MAP_ROTATION": -1.0, "MapBookPage": 3, "PAGE": "Page: 3" }, "geometry": { "type": "Point", "coordinates": [ -108.558932667999954, 39.082814510000048 ] } },
{ "type": "Feature", "properties": { "OBJECTID": 46, "MARKERDESC": "school", "SYMBOL": 0, "ANNOTATION": 0, "NAME": "Plateau Valley School", "STREET_NO": 5660.0, "DIRECTION": " ", "STREET": "HWY 330", "STREET_TYP": " ", "PHONE": "(970) 487-3547", "PUB_PRI": "pub", "CODE": "HIGH", "CODE2": "High", "PUB_PRI2": "Public", "MapBookScale": 1200, "Book_Jurisdiction": "MCSO", "ADDRESS": "5660 HWY 330, Plateau Valley, 81624", "MAP_ROTATION": -1.0, "MapBookPage": 47, "PAGE": "Page: 47" }, "geometry": { "type": "Point", "coordinates": [ -107.996134053999981, 39.23375248900004 ] } },
{ "type": "Feature", "properties": { "OBJECTID": 47, "MARKERDESC": "school", "SYMBOL": 0, "ANNOTATION": 0, "NAME": "Loma Elementary School", "STREET_NO": 1360.0, "DIRECTION": " ", "STREET": "13", "STREET_TYP": "Rd", "PHONE": "(970) 254-6520", "PUB_PRI": "pub", "CODE": "ELEM", "CODE2": "Elementary", "PUB_PRI2": "Public", "MapBookScale": 1200, "Book_Jurisdiction": "MCSO", "ADDRESS": "1360 13 Rd, Loma, 81524", "MAP_ROTATION": -1.0, "MapBookPage": 35, "PAGE": "Page: 35" }, "geometry": { "type": "Point", "coordinates": [ -108.812249965999968, 39.203521342000045 ] } },
{ "type": "Feature", "properties": { "OBJECTID": 48, "MARKERDESC": "school", "SYMBOL": 0, "ANNOTATION": 0, "NAME": "Scenic Elementary School", "STREET_NO": 451.0, "DIRECTION": "W", "STREET": "Scenic", "STREET_TYP": "Dr", "PHONE": "(970) 254-6370", "PUB_PRI": "pub", "CODE": "ELEM", "CODE2": "Elementary", "PUB_PRI2": "Public", "MapBookScale": 1200, "Book_Jurisdiction": "MCSO", "ADDRESS": "451 W Scenic Dr, Grand Junction, 81507", "MAP_ROTATION": -1.0, "MapBookPage": 53, "PAGE": "Page: 53" }, "geometry": { "type": "Point", "coordinates": [ -108.611611776999951, 39.072515557000031 ] } },
{ "type": "Feature", "properties": { "OBJECTID": 49, "MARKERDESC": "school", "SYMBOL": 0, "ANNOTATION": 0, "NAME": "Dos Rios Elementary School", "STREET_NO": 265.0, "DIRECTION": " ", "STREET": "Linden", "STREET_TYP": "Ave", "PHONE": "(970) 254-7910", "PUB_PRI": "pub", "CODE": "ELEM", "CODE2": "Elementary", "PUB_PRI2": "Public", "MapBookScale": 1200, "Book_Jurisdiction": "GJ", "ADDRESS": "265 Linden Ave, Grand Junction, 81503", "MAP_ROTATION": -1.0, "MapBookPage": 16, "PAGE": "Page: 16" }, "geometry": { "type": "Point", "coordinates": [ -108.558073027999967, 39.04231457800006 ] } },
{ "type": "Feature", "properties": { "OBJECTID": 50, "MARKERDESC": "school", "SYMBOL": 0, "ANNOTATION": 0, "NAME": "Rocky Mountain Elementary School", "STREET_NO": 3260.0, "DIRECTION": " ", "STREET": "D 1/2", "STREET_TYP": "Rd", "PHONE": "(970) 254-4900", "PUB_PRI": "pub", "CODE": "ELEM", "CODE2": "Elementary", "PUB_PRI2": "Public", "MapBookScale": 960, "Book_Jurisdiction": "MCSO", "ADDRESS": "3260 D 1/2 Rd, Clifton, 81520", "MAP_ROTATION": -1.0, "MapBookPage": 52, "PAGE": "Page: 52" }, "geometry": { "type": "Point", "coordinates": [ -108.449047324999981, 39.070871747000069 ] } },
{ "type": "Feature", "properties": { "OBJECTID": 51, "MARKERDESC": "school", "SYMBOL": 0, "ANNOTATION": 0, "NAME": "Grand Mesa Middle School", "STREET_NO": 585.0, "DIRECTION": " ", "STREET": "31 1/2", "STREET_TYP": "Rd", "PHONE": "(970) 254-6270", "PUB_PRI": "pub", "CODE": "MIDD", "CODE2": "Middle", "PUB_PRI2": "Public", "MapBookScale": 1200, "Book_Jurisdiction": "MCSO", "ADDRESS": "585 31 1/2 Rd, Grand Junction 81504", "MAP_ROTATION": -1.0, "MapBookPage": 26, "PAGE": "Page: 26" }, "geometry": { "type": "Point", "coordinates": [ -108.469746405999956, 39.089651966000076 ] } },
{ "type": "Feature", "properties": { "OBJECTID": 52, "MARKERDESC": "school", "SYMBOL": 0, "ANNOTATION": 0, "NAME": "Pear Park Elementary School", "STREET_NO": 432.0, "DIRECTION": " ", "STREET": "30 1/4", "STREET_TYP": "Rd", "PHONE": "(970) 254-5960", "PUB_PRI": "pub", "CODE": "ELEM", "CODE2": "Elementary", "PUB_PRI2": "Public", "MapBookScale": 960, "Book_Jurisdiction": "GJ", "ADDRESS": "432 30 1/4 Rd, Grand Junction 81504", "MAP_ROTATION": -1.0, "MapBookPage": 46, "PAGE": "Page: 46" }, "geometry": { "type": "Point", "coordinates": [ -108.490294248999987, 39.067933143000062 ] } },
{ "type": "Feature", "properties": { "OBJECTID": 53, "MARKERDESC": "school", "SYMBOL": 0, "ANNOTATION": 0, "NAME": "Fruita 8/9 School", "STREET_NO": 1835.0, "DIRECTION": " ", "STREET": "J", "STREET_TYP": "Rd", "PHONE": "(970) 254-6720", "PUB_PRI": "pub", "CODE": "HIGH", "CODE2": "High", "PUB_PRI2": "Public", "MapBookScale": 1200, "Book_Jurisdiction": "MCSO", "ADDRESS": "1835 J Rd, Fruita, 81521", "MAP_ROTATION": -1.0, "MapBookPage": 19, "PAGE": "Page: 19" }, "geometry": { "type": "Point", "coordinates": [ -108.71214155499996, 39.148675212000057 ] } },
{ "type": "Feature", "properties": { "OBJECTID": 54, "MARKERDESC": "school", "SYMBOL": 0, "ANNOTATION": 0, "NAME": "Rim Rock Elementary School", "STREET_NO": 1810.0, "DIRECTION": " ", "STREET": "J 6/10", "STREET_TYP": "Rd", "PHONE": "(970) 254-6770", "PUB_PRI": "pub", "CODE": "ELEM", "CODE2": "Elementary", "PUB_PRI2": "Public", "MapBookScale": 960, "Book_Jurisdiction": "MCSO", "ADDRESS": "1810 J 6/10 Rd, Fruita, 81521", "MAP_ROTATION": -1.0, "MapBookPage": 51, "PAGE": "Page: 51" }, "geometry": { "type": "Point", "coordinates": [ -108.711592830999962, 39.159752573000048 ] } },
{ "type": "Feature", "properties": { "OBJECTID": 55, "MARKERDESC": "school", "SYMBOL": 0, "ANNOTATION": 0, "NAME": "Dual Immersion Academy", "STREET_NO": 552.0, "DIRECTION": "W", "STREET": "Main", "STREET_TYP": "St", "PHONE": "(970) 254-6070", "PUB_PRI": "pub", "CODE": "ELEM", "CODE2": "Elementary", "PUB_PRI2": "Public", "MapBookScale": 960, "Book_Jurisdiction": "GJ", "ADDRESS": "552 W Main St, Grand Junction, 81501", "MAP_ROTATION": -1.0, "MapBookPage": 17, "PAGE": "Page: 17" }, "geometry": { "type": "Point", "coordinates": [ -108.578358703999982, 39.067742010000075 ] } },
{ "type": "Feature", "properties": { "OBJECTID": 58, "MARKERDESC": "school", "SYMBOL": 0, "ANNOTATION": 0, "NAME": "Independence Academy", "STREET_NO": 675.0, "DIRECTION": " ", "STREET": "29", "STREET_TYP": "Rd", "PHONE": "(970) 241-2064", "PUB_PRI": "Ctr", "CODE": "K-8", "CODE2": " ", "PUB_PRI2": "Charter", "MapBookScale": 960, "Book_Jurisdiction": "GJ", "ADDRESS": "675 29 Rd, Grand Junction, 81506", "MAP_ROTATION": -1.0, "MapBookPage": 30, "PAGE": "Page: 30" }, "geometry": { "type": "Point", "coordinates": [ -108.518766404999951, 39.101789132000079 ] } },
{ "type": "Feature", "properties": { "OBJECTID": 59, "MARKERDESC": "school", "SYMBOL": 0, "ANNOTATION": 0, "NAME": "Juniper Ridge", "STREET_NO": 615.0, "DIRECTION": " ", "STREET": "Community", "STREET_TYP": "Ln", "PHONE": "(970) 639-0884", "PUB_PRI": "Ctr", "CODE": "K-9", "CODE2": " ", "PUB_PRI2": "Charter", "MapBookScale": 960, "Book_Jurisdiction": "GJ", "ADDRESS": "615 Community Ln, Grand Junction, 81506", "MAP_ROTATION": -1.0, "MapBookPage": 31, "PAGE": "Page: 31" }, "geometry": { "type": "Point", "coordinates": [ -108.564975310999955, 39.094304141000066 ] } },
{ "type": "Feature", "properties": { "OBJECTID": 60, "MARKERDESC": "school", "SYMBOL": 0, "ANNOTATION": 0, "NAME": "Grand River Academy", "STREET_NO": 600.0, "DIRECTION": "N", "STREET": "14th", "STREET_TYP": "St", "PHONE": "(970) 254-6393", "PUB_PRI": " ", "CODE": " ", "CODE2": " ", "PUB_PRI2": "OnLine", "MapBookScale": 720, "Book_Jurisdiction": "GJ", "ADDRESS": "600 N 14th St, Grand Junction, 81501", "MAP_ROTATION": -1.0, "MapBookPage": 27, "PAGE": "Page: 27" }, "geometry": { "type": "Point", "coordinates": [ -108.548498325999958, 39.072908667000036 ] } },
{ "type": "Feature", "properties": { "OBJECTID": 61, "MARKERDESC": "school", "SYMBOL": 0, "ANNOTATION": 0, "NAME": "Mesa Valley Community", "STREET_NO": 609.0, "DIRECTION": " ", "STREET": "25", "STREET_TYP": "Rd", "PHONE": "(970) 254-7202", "PUB_PRI": "Ctr", "CODE": "K-12", "CODE2": " ", "PUB_PRI2": "Charter", "MapBookScale": 960, "Book_Jurisdiction": "GJ", "ADDRESS": "609 25 Rd, Grand Junction, 81505", "MAP_ROTATION": -1.0, "MapBookPage": 36, "PAGE": "Page: 36" }, "geometry": { "type": "Point", "coordinates": [ -108.591618794999988, 39.093223310000042 ] } },
{ "type": "Feature", "properties": { "OBJECTID": 62, "MARKERDESC": "school", "SYMBOL": 0, "ANNOTATION": 0, "NAME": "Caprock Academy", "STREET_NO": 714.0, "DIRECTION": " ", "STREET": "24 1/2", "STREET_TYP": "Rd", "PHONE": "(970) 243-1771", "PUB_PRI": " ", "CODE": "K-12", "CODE2": null, "PUB_PRI2": "Charter", "MapBookScale": 720, "Book_Jurisdiction": "GJ", "ADDRESS": "714 24 1/2 Rd, Grand Junction, 81505", "MAP_ROTATION": -1.0, "MapBookPage": 8, "PAGE": "Page: 8" }, "geometry": { "type": "Point", "coordinates": [ -108.597638021999956, 39.108860570000047 ] } },
{ "type": "Feature", "properties": { "OBJECTID": 467, "MARKERDESC": " ", "SYMBOL": 0, "ANNOTATION": 0, "NAME": " Monument Ridge Elementary School", "STREET_NO": 1501.0, "DIRECTION": " ", "STREET": "K.4", "STREET_TYP": "Rd", "PHONE": " ", "PUB_PRI": " ", "CODE": "ELEM", "CODE2": "Elementary", "PUB_PRI2": "Public", "MapBookScale": null, "Book_Jurisdiction": null, "ADDRESS": "1501 K.4 Road, Fruita, 81521", "MAP_ROTATION": null, "MapBookPage": null, "PAGE": null }, "geometry": { "type": "Point", "coordinates": [ -108.708875, 39.170691629000032 ] } },
{ "type": "Feature", "properties": { "OBJECTID": 468, "MARKERDESC": "school", "SYMBOL": 0, "ANNOTATION": 0, "NAME": "Western Colorado Community College", "STREET_NO": 2508.0, "DIRECTION": " ", "STREET": "Blichmann", "STREET_TYP": "Ave", "PHONE": "(970) 255-2600", "PUB_PRI": "pub", "CODE": " ", "CODE2": "College", "PUB_PRI2": "Public", "MapBookScale": null, "Book_Jurisdiction": null, "ADDRESS": null, "MAP_ROTATION": null, "MapBookPage": null, "PAGE": null }, "geometry": { "type": "Point", "coordinates": [ -108.586238493999986, 39.097664915000053 ] } }
]
}
